     2.11           OBSERVATION DATA    M (MIXED)           RINEX VERSION / TYPE
CONVBIN 2.4.3 demo5                     20190310 195117 UTC PGM / RUN BY / DATE 
log: test/data/android/lantmateriet_fixpoints/1184190/rover_COMMENT             
format: ANDROID                                             COMMENT             
                                                            MARKER NAME         
                                                            MARKER NUMBER       
                                                            OBSERVER / AGENCY   
                                                            REC # / TYPE / VERS 
                                                            ANT # / TYPE        
        0.0000        0.0000        0.0000                  APPROX POSITION XYZ 
        0.0000        0.0000        0.0000                  ANTENNA: DELTA H/E/N
     1     1                                                WAVELENGTH FACT L1/2
     4    C1    L1    C2    L2                              # / TYPES OF OBSERV 
  2019     3    10    15    14   56.3927643     GPS         TIME OF FIRST OBS   
  2019     3    10    15    46   48.3927598     GPS         TIME OF LAST OBS    
                                                            END OF HEADER       
 19  3 10 15 14 56.3927643  0 11G 2G 3G 6G12G14G19G24G25G29G31G32
  22448925.028                                                  
  24744379.718                                                  
  22284601.492                                                  
  20363824.476                                                  
  22870419.541                                                  
  24375348.655                                                  
  24108528.405                                                  
  20480687.886                                                  
  22420834.923                                                  
  23253531.394                                                  
  23149962.537                                                  
 19  3 10 15 14 57.3927643  0 11G 2G 3G 6G12G14G19G24G25G29G31G32
  22448639.123                                                  
  24744594.146                                                  
  22284744.445                                                  
  20364110.380                                                  
  22870491.017                                                  
  24375991.940                                                  
  24109243.165                                                  
  20480544.934                                                  
  22420191.639                                                  
  23252888.109                                                  
  23150391.393                                                  
 19  3 10 15 14 58.3927643  0 11G 2G 3G 6G12G14G19G24G25G29G31G32
  22448353.219                                                  
  24744880.050                                                  
  22284815.921                                                  
  20364396.285                                                  
  22870633.970                                                  
  24376706.701                                                  
  24110029.402                                                  
  20480330.506                                                  
  22419548.354                                                  
  23252244.824                                                  
  23150748.774                                                  
 19  3 10 15 14 59.3927643  0 11G 2G 3G 6G12G14G19G24G25G29G31G32
  22448138.791                                                  
  24745165.955                                                  
  22284958.873                                                  
  20364682.189                                                  
  22870776.922                                                  
  24377492.938                                                  
  24110672.687                                                  
  20480187.553                                                  
  22418976.545                                                  
  23251744.491                                                  
  23151106.154                                                  
 19  3 10 15 15  0.3927643  0 11G 2G 3G 6G12G14G19G24G25G29G31G32
  22447924.362                                                  
  24745380.383                                                  
  22285030.349                                                  
  20364968.093                                                  
  22870848.398                                                  
  24378136.223                                                  
  24111458.924                                                  
  20479973.125                                                  
  22418333.260                                                  
  23251172.683                                                  
  23151606.487                                                  
 19  3 10 15 15  1.3927643  0 11G 2G 3G 6G12G14G19G24G25G29G31G32
  22447638.458                                                  
  24745594.811                                                  
  22285173.301                                                  
  20365325.474                                                  
  22870991.350                                                  
  24378922.460                                                  
  24112173.685                                                  
  20479830.173                                                  
  22417689.975                                                  
  23250600.874                                                  
  23151963.867                                                  
 19  3 10 15 15  2.3927643  0 11G 2G 3G 6G12G14G19G24G25G29G31G32
  22447424.030                                                  
  24745880.716                                                  
  22285244.777                                                  
  20365611.378                                                  
  22871134.302                                                  
  24379637.221                                                  
  24112888.446                                                  
  20479544.268                                                  
  22417046.691                                                  
  23250029.065                                                  
  23152321.248                                                  
 19  3 10 15 15  3.3927643  0 11G 2G 3G 6G12G14G19G24G25G29G31G32
  22447209.601                                                  
  24746095.144                                                  
  22285387.729                                                  
  20365825.806                                                  
  22871205.778                                                  
  24380351.982                                                  
  24113603.207                                                  
  20479401.316                                                  
  22416403.406                                                  
  23249457.256                                                  
  23152750.104                                                  
 19  3 10 15 15  4.3927643  0 11G 2G 3G 6G12G14G19G24G25G29G31G32
  22446923.697                                                  
  24746381.048                                                  
  22285530.682                                                  
  20366111.711                                                  
  22871420.207                                                  
  24381138.219                                                  
  24114389.444                                                  
  20479258.364                                                  
  22415831.597                                                  
  23248813.972                                                  
  23153107.485                                                  
 19  3 10 15 15  5.3927641  0 11G 2G 3G 6G12G14G19G24G25G29G31G32
  22446566.317                                                  
  24746524.000                                                  
  22285602.158                                                  
  20366397.615                                                  
  22871491.683                                                  
  24381781.504                                                  
  24114961.253                                                  
  20478972.460                                                  
  22415116.836                                                  
  23248242.163                                                  
  23153464.865                                                  
 19  3 10 15 15  6.3927641  0 11G 2G 3G 6G12G14G19G24G25G29G31G32
  22446351.888                                                  
  24746809.905                                                  
  22285673.634                                                  
  20366683.519                                                  
  22871563.159                                                  
  24382424.789                                                  
  24115676.014                                                  
  20478829.508                                                  
  22414545.027                                                  
  23247670.354                                                  
  23153822.246                                                  
 19  3 10 15 15  7.3927641  0 11G 2G 3G 6G12G14G19G24G25G29G31G32
  22446137.460                                                  
  24747024.333                                                  
  22285816.586                                                  
  20366897.948                                                  
  22871706.111                                                  
  24383211.026                                                  
  24116462.251                                                  
  20478543.603                                                  
  22413830.266                                                  
  23247098.545                                                  
  23154179.626                                                  
 19  3 10 15 15  8.3927643  0 11G 2G 3G 6G12G14G19G24G25G29G31G32
  22445994.508                                                  
  24747310.237                                                  
  22285959.538                                                  
  20367255.328                                                  
  22871920.539                                                  
  24383997.263                                                  
  24117248.488                                                  
  20478400.651                                                  
  22413258.458                                                  
  23246598.213                                                  
  23154679.959                                                  
 19  3 10 15 15  9.3927641  0 11G 2G 3G 6G12G14G19G24G25G29G31G32
  22445565.651                                                  
  24747453.190                                                  
  22286031.014                                                  
  20367541.233                                                  
  22871920.539                                                  
  24384712.023                                                  
  24117891.773                                                  
  20478186.223                                                  
  22412615.173                                                  
  23245883.452                                                  
  23154965.863                                                  
 19  3 10 15 15 10.3927641  0 11G 2G 3G 6G12G14G19G24G25G29G31G32
  22445351.223                                                  
  24747667.618                                                  
  22286102.490                                                  
  20367827.137                                                  
  22872063.491                                                  
  24385355.308                                                  
  24118606.533                                                  
  20478043.271                                                  
  22411971.888                                                  
  23245383.119                                                  
  23155323.243                                                  
 19  3 10 15 15 11.3927641  0 11G 2G 3G 6G12G14G19G24G25G29G31G32
  22445136.795                                                  
  24747953.522                                                  
  22286245.442                                                  
  20368041.565                                                  
  22872134.967                                                  
  24386141.545                                                  
  24119392.770                                                  
  20477828.842                                                  
  22411328.603                                                  
  23244739.834                                                  
  23155823.576                                                  
 19  3 10 15 15 12.3927641  0 11G 2G 3G 6G12G14G19G24G25G29G31G32
  22444922.366                                                  
  24748167.951                                                  
  22286316.919                                                  
  20368398.946                                                  
  22872277.920                                                  
  24386927.782                                                  
  24120036.055                                                  
  20477614.414                                                  
  22410685.318                                                  
  23244239.502                                                  
  23156180.957                                                  
 19  3 10 15 15 13.3927641  0 11G 2G 3G 6G12G14G19G24G25G29G31G32
  22444707.938                                                  
  24748453.855                                                  
  22286531.347                                                  
  20368684.850                                                  
  22872420.872                                                  
  24387571.067                                                  
  24120822.292                                                  
  20477399.986                                                  
  22410042.034                                                  
  23243596.217                                                  
  23156609.813                                                  
 19  3 10 15 15 14.3927641  0 11G 2G 3G 6G12G14G19G24G25G29G31G32
  22444350.558                                                  
  24748596.807                                                  
  22286602.823                                                  
  20368970.754                                                  
  22872563.824                                                  
  24388285.828                                                  
  24121537.053                                                  
  20477257.034                                                  
  22409470.225                                                  
  23243095.884                                                  
  23156967.194                                                  
 19  3 10 15 15 15.3927643  0 11G 2G 3G 6G12G14G19G24G25G29G31G32
  22444207.606                                                  
  24749025.664                                                  
  22286817.251                                                  
  20369328.135                                                  
  22872778.252                                                  
  24389143.541                                                  
  24122394.766                                                  
  20477114.081                                                  
  22408898.416                                                  
  23242524.076                                                  
  23157396.050                                                  
 19  3 10 15 15 16.3927641  0 11G 2G 3G 6G12G14G19G24G25G29G31G32
  22443921.701                                                  
  24749168.616                                                  
  22286817.251                                                  
  20369542.563                                                  
  22872778.252                                                  
  24389715.350                                                  
  24122966.575                                                  
  20476828.177                                                  
  22408112.179                                                  
  23241952.267                                                  
  23157753.431                                                  
 19  3 10 15 15 17.3927643  0 11G 2G 3G 6G12G14G19G24G25G29G31G32
  22443778.749                                                  
  24749454.520                                                  
  22287031.679                                                  
  20369899.944                                                  
  22872992.681                                                  
  24390573.063                                                  
  24123752.812                                                  
  20476685.225                                                  
  22407611.846                                                  
  23241380.458                                                  
  23158182.287                                                  
 19  3 10 15 15 18.3927643  0 11G 2G 3G 6G12G14G19G24G25G29G31G32
  22443492.845                                                  
  24749740.425                                                  
  22287103.156                                                  
  20370185.848                                                  
  22873135.633                                                  
  24391287.824                                                  
  24124539.049                                                  
  20476470.797                                                  
  22406968.562                                                  
  23240737.173                                                  
  23158539.668                                                  
 19  3 10 15 15 19.3927643  0 11G 2G 3G 6G12G14G19G24G25G29G31G32
  22443206.940                                                  
  24750026.329                                                  
  22287174.632                                                  
  20370400.276                                                  
  22873207.109                                                  
  24392074.061                                                  
  24125182.334                                                  
  20476256.368                                                  
  22406325.277                                                  
  23240236.841                                                  
  23158968.524                                                  
 19  3 10 15 15 20.3927643  0 11G 2G 3G 6G12G14G19G24G25G29G31G32
  22442992.512                                                  
  24750240.757                                                  
  22287317.584                                                  
  20370757.657                                                  
  22873350.061                                                  
  24392788.822                                                  
  24125968.571                                                  
  20476113.416                                                  
  22405681.992                                                  
  23239665.032                                                  
  23159325.905                                                  
 19  3 10 15 15 21.3927643  0 11G 2G 3G 6G12G14G19G24G25G29G31G32
  22442778.084                                                  
  24750455.186                                                  
  22287389.060                                                  
  20371043.561                                                  
  22873493.013                                                  
  24393503.583                                                  
  24126683.332                                                  
  20475898.988                                                  
  22405038.707                                                  
  23239093.223                                                  
  23159754.761                                                  
 19  3 10 15 15 22.3927643  0 11G 2G 3G 6G12G14G19G24G25G29G31G32
  22442492.179                                                  
  24750669.614                                                  
  22287603.488                                                  
  20371329.465                                                  
  22873635.965                                                  
  24394218.344                                                  
  24127398.093                                                  
  20475756.036                                                  
  22404466.898                                                  
  23238449.938                                                  
  23160112.142                                                  
 19  3 10 15 15 23.3927643  0 11G 2G 3G 6G12G14G19G24G25G29G31G32
  22442277.751                                                  
  24750884.042                                                  
  22287746.440                                                  
  20371686.846                                                  
  22873778.918                                                  
  24394933.105                                                  
  24128112.854                                                  
  20475470.131                                                  
  22403823.614                                                  
  23237949.606                                                  
  23160469.522                                                  
 19  3 10 15 15 24.3927643  0 11G 2G 3G 6G12G14G19G24G25G29G31G32
  22441991.847                                                  
  24751169.946                                                  
  22287817.917                                                  
  20371901.274                                                  
  22873921.870                                                  
  24395647.866                                                  
  24128899.091                                                  
  20475327.179                                                  
  22403251.805                                                  
  23237306.321                                                  
  23160898.379                                                  
 19  3 10 15 15 25.3927643  0 11G 2G 3G 6G12G14G19G24G25G29G31G32
  22441777.418                                                  
  24751455.851                                                  
  22287960.869                                                  
  20372187.179                                                  
  22873993.346                                                  
  24396434.103                                                  
  24129542.376                                                  
  20475184.227                                                  
  22402608.520                                                  
  23236805.988                                                  
  23161327.235                                                  
 19  3 10 15 15 26.3927641  0 11G 2G 3G 6G12G14G19G24G25G29G31G32
  22441420.038                                                  
  24751598.803                                                  
  22287960.869                                                  
  20372401.607                                                  
  22874064.822                                                  
  24397148.863                                                  
  24130185.660                                                  
  20474898.323                                                  
  22401822.283                                                  
  23236091.227                                                  
  23161541.663                                                  
 19  3 10 15 15 27.3927641  0 11G 2G 3G 6G12G14G19G24G25G29G31G32
  22441205.610                                                  
  24751741.755                                                  
  22288032.345                                                  
  20372758.987                                                  
  22874136.298                                                  
  24397792.148                                                  
  24130971.897                                                  
  20474755.370                                                  
  22401250.474                                                  
  23235519.419                                                  
  23162041.996                                                  
 19  3 10 15 15 28.3927643  0 11G 2G 3G 6G12G14G19G24G25G29G31G32
  22441062.657                                                  
  24752170.612                                                  
  22288246.773                                                  
  20373044.892                                                  
  22874350.726                                                  
  24398578.385                                                  
  24131758.134                                                  
  20474612.418                                                  
  22400678.666                                                  
  23235019.086                                                  
  23162470.853                                                  
 19  3 10 15 15 29.3927643  0 11G 2G 3G 6G12G14G19G24G25G29G31G32
  22440848.229                                                  
  24752456.516                                                  
  22288389.725                                                  
  20373330.796                                                  
  22874422.202                                                  
  24399364.622                                                  
  24132472.895                                                  
  20474397.990                                                  
  22400106.857                                                  
  23234447.277                                                  
  23162899.709                                                  
 19  3 10 15 15 30.3927643  0 11G 2G 3G 6G12G14G19G24G25G29G31G32
  22440633.801                                                  
  24752599.468                                                  
  22288461.201                                                  
  20373688.176                                                  
  22874636.631                                                  
  24400079.383                                                  
  24133187.656                                                  
  20474183.562                                                  
  22399463.572                                                  
  23233875.468                                                  
  23163257.090                                                  
 19  3 10 15 15 31.3927641  0 11G 2G 3G 6G12G14G19G24G25G29G31G32
  22440204.944                                                  
  24752813.897                                                  
  22288604.154                                                  
  20373902.605                                                  
  22874708.107                                                  
  24400722.668                                                  
  24133830.941                                                  
  20473969.133                                                  
  22398748.811                                                  
  23233232.184                                                  
  23163542.994                                                  
 19  3 10 15 15 32.3927641  0 11G 2G 3G 6G12G14G19G24G25G29G31G32
  22439990.516                                                  
  24753099.801                                                  
  22288675.630                                                  
  20374188.509                                                  
  22874851.059                                                  
  24401508.905                                                  
  24134545.702                                                  
  20473754.705                                                  
  22398105.526                                                  
  23232731.851                                                  
  23163971.851                                                  
 19  3 10 15 15 33.3927641  0 11G 2G 3G 6G12G14G19G24G25G29G31G32
  22439776.088                                                  
  24753314.229                                                  
  22288818.582                                                  
  20374474.413                                                  
  22874922.535                                                  
  24402152.190                                                  
  24135331.939                                                  
  20473611.753                                                  
  22397462.241                                                  
  23232088.566                                                  
  23164329.231                                                  
 19  3 10 15 15 34.3927641  0 11G 2G 3G 6G12G14G19G24G25G29G31G32
  22439561.660                                                  
  24753600.134                                                  
  22288890.058                                                  
  20374831.794                                                  
  22875065.487                                                  
  24402938.427                                                  
  24136046.700                                                  
  20473468.801                                                  
  22396890.433                                                  
  23231588.233                                                  
  23164686.611                                                  
 19  3 10 15 15 35.3927641  0 11G 2G 3G 6G12G14G19G24G25G29G31G32
  22439275.755                                                  
  24753814.562                                                  
  22289033.010                                                  
  20375046.222                                                  
  22875208.439                                                  
  24403653.188                                                  
  24136761.461                                                  
  20473182.896                                                  
  22396247.148                                                  
  23230944.949                                                  
  23165186.944                                                  
 19  3 10 15 15 36.3927641  0 11G 2G 3G 6G12G14G19G24G25G29G31G32
  22439061.327                                                  
  24754100.466                                                  
  22289104.486                                                  
  20375332.127                                                  
  22875279.916                                                  
  24404439.425                                                  
  24137476.222                                                  
  20473039.944                                                  
  22395603.863                                                  
  23230444.616                                                  
  23165544.325                                                  
 19  3 10 15 15 37.3927641  0 11G 2G 3G 6G12G14G19G24G25G29G31G32
  22438846.899                                                  
  24754314.894                                                  
  22289247.438                                                  
  20375689.507                                                  
  22875422.868                                                  
  24405082.710                                                  
  24138262.459                                                  
  20472825.516                                                  
  22395032.054                                                  
  23229801.331                                                  
  23165973.181                                                  
 19  3 10 15 15 38.3927641  0 11G 2G 3G 6G12G14G19G24G25G29G31G32
  22438632.470                                                  
  24754529.323                                                  
  22289390.391                                                  
  20375975.411                                                  
  22875637.296                                                  
  24405868.947                                                  
  24138977.220                                                  
  20472682.564                                                  
  22394388.769                                                  
  23229229.522                                                  
  23166330.562                                                  
 19  3 10 15 15 39.3927641  0 11G 2G 3G 6G12G14G19G24G25G29G31G32
  22438275.090                                                  
  24754743.751                                                  
  22289461.867                                                  
  20376261.316                                                  
  22875780.248                                                  
  24406583.708                                                  
  24139620.504                                                  
  20472468.135                                                  
  22393745.485                                                  
  23228657.714                                                  
  23166687.942                                                  
 19  3 10 15 15 40.3927641  0 11G 2G 3G 6G12G14G19G24G25G29G31G32
  22438060.662                                                  
  24755101.131                                                  
  22289676.295                                                  
  20376475.744                                                  
  22875851.724                                                  
  24407298.468                                                  
  24140406.741                                                  
  20472253.707                                                  
  22393102.200                                                  
  23228085.905                                                  
  23167116.799                                                  
 19  3 10 15 15 41.3927641  0 11G 2G 3G 6G12G14G19G24G25G29G31G32
  22437846.233                                                  
  24755315.560                                                  
  22289747.771                                                  
  20376833.124                                                  
  22875994.676                                                  
  24408084.705                                                  
  24141121.502                                                  
  20472039.279                                                  
  22392458.915                                                  
  23227585.572                                                  
  23167545.655                                                  
 19  3 10 15 15 42.3927641  0 11G 2G 3G 6G12G14G19G24G25G29G31G32
  22437631.805                                                  
  24755601.464                                                  
  22289890.723                                                  
  20377119.029                                                  
  22876137.629                                                  
  24408799.466                                                  
  24141836.263                                                  
  20471896.327                                                  
  22391887.106                                                  
  23226942.287                                                  
  23167974.512                                                  
 19  3 10 15 15 43.3927641  0 11G 2G 3G 6G12G14G19G24G25G29G31G32
  22437417.377                                                  
  24755744.416                                                  
  22289962.199                                                  
  20377404.933                                                  
  22876209.105                                                  
  24409585.703                                                  
  24142622.500                                                  
  20471681.898                                                  
  22391243.821                                                  
  23226441.955                                                  
  23168331.892                                                  
 19  3 10 15 15 44.3927641  0 11G 2G 3G 6G12G14G19G24G25G29G31G32
  22437131.472                                                  
  24756030.321                                                  
  22290105.151                                                  
  20377762.314                                                  
  22876352.057                                                  
  24410228.988                                                  
  24143337.261                                                  
  20471538.946                                                  
  22390672.013                                                  
  23225798.670                                                  
  23168689.273                                                  
 19  3 10 15 15 45.3927641  0 11G 2G 3G 6G12G14G19G24G25G29G31G32
  22436917.044                                                  
  24756316.225                                                  
  22290248.104                                                  
  20378048.218                                                  
  22876566.485                                                  
  24411015.225                                                  
  24143980.546                                                  
  20471253.042                                                  
  22389957.252                                                  
  23225298.337                                                  
  23169118.129                                                  
 19  3 10 15 15 46.3927641  0 11G 2G 3G 6G12G14G19G24G25G29G31G32
  22436702.616                                                  
  24756530.653                                                  
  22290319.580                                                  
  20378334.122                                                  
  22876709.437                                                  
  24411729.986                                                  
  24144766.783                                                  
  20471110.090                                                  
  22389313.967                                                  
  23224655.053                                                  
  23169475.510                                                  
 19  3 10 15 15 47.3927641  0 11G 2G 3G 6G12G14G19G24G25G29G31G32
  22436488.188                                                  
  24756816.558                                                  
  22290462.532                                                  
  20378620.027                                                  
  22876780.913                                                  
  24412444.747                                                  
  24145553.020                                                  
  20470967.137                                                  
  22388742.158                                                  
  23224154.720                                                  
  23169832.890                                                  
 19  3 10 15 15 48.3927641  0 11G 2G 3G 6G12G14G19G24G25G29G31G32
  22436130.807                                                  
  24757030.986                                                  
  22290605.484                                                  
  20378905.931                                                  
  22876923.866                                                  
  24413159.508                                                  
  24146267.781                                                  
  20470752.709                                                  
  22388098.873                                                  
  23223511.435                                                  
  23170261.747                                                  
 19  3 10 15 15 49.3927641  0 11G 2G 3G 6G12G14G19G24G25G29G31G32
  22435916.379                                                  
  24757245.414                                                  
  22290748.436                                                  
  20379191.836                                                  
  22876995.342                                                  
  24413945.745                                                  
  24146911.066                                                  
  20470538.281                                                  
  22387527.065                                                  
  23222939.626                                                  
  23170690.603                                                  
 19  3 10 15 15 50.3927641  0 11G 2G 3G 6G12G14G19G24G25G29G31G32
  22435701.951                                                  
  24757531.319                                                  
  22290819.912                                                  
  20379477.740                                                  
  22877138.294                                                  
  24414589.030                                                  
  24147697.303                                                  
  20470395.329                                                  
  22386883.780                                                  
  23222367.818                                                  
  23171119.460                                                  
 19  3 10 15 15 51.3927641  0 11G 2G 3G 6G12G14G19G24G25G29G31G32
  22435487.522                                                  
  24757745.747                                                  
  22290962.865                                                  
  20379835.120                                                  
  22877281.246                                                  
  24415375.267                                                  
  24148412.064                                                  
  20470109.424                                                  
  22386169.019                                                  
  23221796.009                                                  
  23171476.840                                                  
 19  3 10 15 15 52.3927641  0 11G 2G 3G 6G12G14G19G24G25G29G31G32
  22435273.094                                                  
  24757960.175                                                  
  22291034.341                                                  
  20380049.549                                                  
  22877352.722                                                  
  24416090.028                                                  
  24149055.349                                                  
  20469966.472                                                  
  22385597.210                                                  
  23221295.676                                                  
  23171834.221                                                  
 19  3 10 15 15 53.3927641  0 11G 2G 3G 6G12G14G19G24G25G29G31G32
  22434987.190                                                  
  24758317.556                                                  
  22291177.293                                                  
  20380335.453                                                  
  22877495.674                                                  
  24416876.265                                                  
  24149841.586                                                  
  20469752.044                                                  
  22384953.925                                                  
  23220652.391                                                  
  23172263.077                                                  
 19  3 10 15 15 54.3927641  0 11G 2G 3G 6G12G14G19G24G25G29G31G32
  22434772.761                                                  
  24758531.984                                                  
  22291320.245                                                  
  20380621.357                                                  
  22877710.103                                                  
  24417591.026                                                  
  24150627.823                                                  
  20469609.092                                                  
  22384382.117                                                  
  23220152.059                                                  
  23172620.458                                                  
 19  3 10 15 15 55.3927641  0 11G 2G 3G 6G12G14G19G24G25G29G31G32
  22434486.857                                                  
  24758746.412                                                  
  22291391.721                                                  
  20380978.738                                                  
  22877853.055                                                  
  24418305.787                                                  
  24151271.107                                                  
  20469466.140                                                  
  22383738.832                                                  
  23219508.774                                                  
  23172977.838                                                  
 19  3 10 15 15 56.3927641  0 11G 2G 3G 6G12G14G19G24G25G29G31G32
  22434272.429                                                  
  24758960.840                                                  
  22291534.673                                                  
  20381264.642                                                  
  22877996.007                                                  
  24419092.024                                                  
  24152057.344                                                  
  20469180.235                                                  
  22383095.547                                                  
  23219008.441                                                  
  23173478.171                                                  
 19  3 10 15 15 57.3927641  0 11G 2G 3G 6G12G14G19G24G25G29G31G32
  22433986.524                                                  
  24759318.221                                                  
  22291677.625                                                  
  20381550.547                                                  
  22878067.483                                                  
  24419735.308                                                  
  24152772.105                                                  
  20469037.283                                                  
  22382523.738                                                  
  23218365.156                                                  
  23173835.551                                                  
 19  3 10 15 15 58.3927641  0 10G 2G 3G 6G12G14G19G24G29G31G32
  22433772.096                                                  
  24759532.649                                                  
  22291820.578                                                  
  20381764.975                                                  
  22878210.435                                                  
  24420521.545                                                  
  24153558.342                                                  
  22381808.977                                                  
  23217793.348                                                  
  23174264.408                                                  
 19  3 10 15 15 59.3927641  0 10G 2G 3G 6G12G14G19G24G29G31G32
  22433557.668                                                  
  24759747.077                                                  
  22291892.054                                                  
  20382122.355                                                  
  22878281.911                                                  
  24421236.306                                                  
  24154201.627                                                  
  22381237.169                                                  
  23217221.539                                                  
  23174621.788                                                  
 19  3 10 15 16  0.3927641  0 10G 2G 3G 6G12G14G19G24G29G31G32
  22433343.240                                                  
  24759961.506                                                  
  22292035.006                                                  
  20382408.260                                                  
  22878424.864                                                  
  24421951.067                                                  
  24154916.388                                                  
  22380593.884                                                  
  23216649.730                                                  
  23174979.169                                                  
 19  3 10 15 16  1.3927641  0 10G 2G 3G 6G12G14G19G24G29G31G32
  22433057.335                                                  
  24760175.934                                                  
  22292177.958                                                  
  20382694.164                                                  
  22878639.292                                                  
  24422665.828                                                  
  24155702.625                                                  
  22379950.599                                                  
  23216077.922                                                  
  23175408.025                                                  
 19  3 10 15 16  2.3927641  0 10G 2G 3G 6G12G14G19G24G29G31G32
  22432842.907                                                  
  24760533.314                                                  
  22292249.434                                                  
  20383051.544                                                  
  22878782.244                                                  
  24423452.065                                                  
  24156345.910                                                  
  22379378.790                                                  
  23215506.113                                                  
  23175765.406                                                  
 19  3 10 15 16  3.3927641  0 10G 2G 3G 6G12G14G19G24G29G31G32
  22432628.479                                                  
  24760747.743                                                  
  22292392.386                                                  
  20383337.449                                                  
  22878853.720                                                  
  24424166.826                                                  
  24157132.147                                                  
  22378664.029                                                  
  23214934.304                                                  
  23176194.262                                                  
 19  3 10 15 16  4.3927641  0 10G 2G 3G 6G12G14G19G24G29G31G32
  22432342.574                                                  
  24760962.171                                                  
  22292463.862                                                  
  20383551.877                                                  
  22878996.672                                                  
  24424881.587                                                  
  24157846.908                                                  
  22378092.221                                                  
  23214362.495                                                  
  23176623.119                                                  
 19  3 10 15 16  5.3927641  0 10G 2G 3G 6G12G14G19G24G29G31G32
  22432056.670                                                  
  24761176.599                                                  
  22292678.291                                                  
  20383837.781                                                  
  22879139.624                                                  
  24425596.348                                                  
  24158561.669                                                  
  22377448.936                                                  
  23213862.163                                                  
  23176980.499                                                  
 19  3 10 15 16  6.3927641  0 10G 2G 3G 6G12G14G19G24G29G31G32
  22431842.242                                                  
  24761533.980                                                  
  22292749.767                                                  
  20384195.162                                                  
  22879211.101                                                  
  24426382.585                                                  
  24159276.430                                                  
  22376805.651                                                  
  23213218.878                                                  
  23177409.356                                                  
 19  3 10 15 16  7.3927641  0 10G 2G 3G 6G12G14G19G24G29G31G32
  22431627.813                                                  
  24761748.408                                                  
  22292892.719                                                  
  20384481.066                                                  
  22879354.053                                                  
  24427025.870                                                  
  24159991.191                                                  
  22376233.842                                                  
  23212718.545                                                  
  23177766.736                                                  
 19  3 10 15 16  8.3927641  0 10G 2G 3G 6G12G14G19G24G29G31G32
  22431413.385                                                  
  24761962.836                                                  
  22292964.195                                                  
  20384766.971                                                  
  22879497.005                                                  
  24427812.107                                                  
  24160705.952                                                  
  22375590.557                                                  
  23212075.260                                                  
  23178124.117                                                  
 19  3 10 15 16  9.3927641  0 10G 2G 3G 6G12G14G19G24G29G31G32
  22431198.957                                                  
  24762177.265                                                  
  22293107.147                                                  
  20385124.351                                                  
  22879711.433                                                  
  24428526.868                                                  
  24161420.712                                                  
  22375018.749                                                  
  23211503.452                                                  
  23178552.973                                                  
 19  3 10 15 16 10.3927641  0 10G 2G 3G 6G12G14G19G24G29G31G32
  22430913.052                                                  
  24762534.645                                                  
  22293250.099                                                  
  20385338.779                                                  
  22879782.909                                                  
  24429241.629                                                  
  24162206.949                                                  
  22374375.464                                                  
  23210931.643                                                  
  23178910.354                                                  
 19  3 10 15 16 11.3927641  0 10G 2G 3G 6G12G14G19G24G29G31G32
  22430698.624                                                  
  24762749.073                                                  
  22293321.576                                                  
  20385624.684                                                  
  22879925.861                                                  
  24430027.866                                                  
  24162921.710                                                  
  22373660.703                                                  
  23210359.834                                                  
  23179410.686                                                  
 19  3 10 15 16 12.3927641  0 10G 2G 3G 6G12G14G19G24G29G31G32
  22430412.720                                                  
  24762963.502                                                  
  22293464.528                                                  
