% program   : RTKLIB ver.2.4.3 demo5 b29d
% inp file  : hour0730.19n
% inp file  : rover_20190314103432.obs
% obs start : 2019/03/14 10:34:31.4 GPST (week2044 383671.4s)
% obs end   : 2019/03/14 11:51:50.4 GPST (week2044 388310.4s)
% pos mode  : single
% elev mask : 10.0 deg
% ionos opt : broadcast
% tropo opt : saastamoinen
% ephemeris : broadcast
%
% (lat/lon/height=WGS84/ellipsoidal,Q=1:fix,2:float,3:sbas,4:dgps,5:single,6:ppp,ns=# of satellites)
%  GPST                , latitude(deg),longitude(deg), height(m),  Q, ns,  sdn(m),  sde(m),  sdu(m), sdne(m), sdeu(m), sdun(m),age(s), ratio
2019/03/14 10:34:31.407,  59.763404551,  17.763536376,  135.7512,  5,  9,  3.2969,  1.9369,  5.7256,  1.3834,  1.5741,  3.4524,  0.00,   0.0
2019/03/14 10:34:32.407,  59.763034069,  17.764083319,  101.7414,  5,  9,  3.2969,  1.9370,  5.7266,  1.3835,  1.5745,  3.4529,  0.00,   0.0
2019/03/14 10:34:33.407,  59.763319653,  17.763918187,  193.6114,  5,  9,  3.2969,  1.9370,  5.7277,  1.3836,  1.5749,  3.4533,  0.00,   0.0
2019/03/14 10:34:34.407,  59.763042879,  17.764093766,   76.5895,  5,  9,  3.2969,  1.9370,  5.7288,  1.3836,  1.5753,  3.4538,  0.00,   0.0
2019/03/14 10:34:35.407,  59.763017351,  17.763634780,   56.0436,  5,  9,  3.2969,  1.9370,  5.7299,  1.3837,  1.5758,  3.4542,  0.00,   0.0
2019/03/14 10:34:36.407,  59.763076807,  17.763870753,  181.9851,  5,  9,  3.2969,  1.9371,  5.7310,  1.3838,  1.5762,  3.4546,  0.00,   0.0
2019/03/14 10:34:37.407,  59.762872699,  17.763418592,   36.7752,  5,  9,  3.2969,  1.9371,  5.7321,  1.3839,  1.5766,  3.4551,  0.00,   0.0
2019/03/14 10:34:38.407,  59.763361314,  17.763626530,   91.6888,  5,  9,  3.2969,  1.9371,  5.7332,  1.3839,  1.5770,  3.4555,  0.00,   0.0
2019/03/14 10:34:39.407,  59.763486733,  17.763583438,  134.7405,  5,  9,  3.2968,  1.9371,  5.7343,  1.3840,  1.5774,  3.4559,  0.00,   0.0
2019/03/14 10:34:40.407,  59.763150169,  17.763680610,  118.6194,  5,  9,  3.2969,  1.9372,  5.7354,  1.3841,  1.5779,  3.4564,  0.00,   0.0
2019/03/14 10:34:41.407,  59.762744381,  17.763531741,   12.7780,  5,  9,  3.2969,  1.9372,  5.7365,  1.3842,  1.5783,  3.4569,  0.00,   0.0
2019/03/14 10:34:42.407,  59.763355290,  17.763598525,   36.6398,  5,  9,  3.2968,  1.9372,  5.7376,  1.3842,  1.5787,  3.4573,  0.00,   0.0
2019/03/14 10:34:43.407,  59.763096063,  17.763819474,   42.9529,  5,  9,  3.2969,  1.9373,  5.7387,  1.3843,  1.5791,  3.4577,  0.00,   0.0
2019/03/14 10:34:44.407,  59.762659643,  17.763515200,   89.4257,  5,  9,  3.2969,  1.9373,  5.7397,  1.3844,  1.5796,  3.4582,  0.00,   0.0
2019/03/14 10:34:45.407,  59.762739851,  17.763475684,  -35.5033,  5,  9,  3.2969,  1.9373,  5.7408,  1.3844,  1.5800,  3.4587,  0.00,   0.0
2019/03/14 10:34:46.407,  59.763169080,  17.763670529,   78.8042,  5,  9,  3.2968,  1.9373,  5.7419,  1.3845,  1.5804,  3.4591,  0.00,   0.0
2019/03/14 10:34:47.407,  59.763073456,  17.763787423,   91.7162,  5,  9,  3.2968,  1.9374,  5.7430,  1.3846,  1.5808,  3.4595,  0.00,   0.0
2019/03/14 10:34:48.407,  59.763178040,  17.763841615,  130.3156,  5,  9,  3.2968,  1.9374,  5.7441,  1.3846,  1.5812,  3.4599,  0.00,   0.0
2019/03/14 10:34:49.407,  59.763168596,  17.763219211,   36.8046,  5,  9,  3.2968,  1.9374,  5.7452,  1.3847,  1.5817,  3.4604,  0.00,   0.0
2019/03/14 10:34:50.407,  59.762710304,  17.763084768,   37.8778,  5,  9,  3.2969,  1.9375,  5.7463,  1.3848,  1.5821,  3.4609,  0.00,   0.0
2019/03/14 10:34:51.407,  59.763221727,  17.764100760,  104.4970,  5,  9,  3.2968,  1.9375,  5.7474,  1.3848,  1.5825,  3.4613,  0.00,   0.0
2019/03/14 10:34:52.407,  59.763131401,  17.763654013,   70.0833,  5,  9,  3.2968,  1.9375,  5.7485,  1.3849,  1.5829,  3.4617,  0.00,   0.0
2019/03/14 10:34:53.407,  59.762961265,  17.763692784,   62.5663,  5,  9,  3.2968,  1.9375,  5.7496,  1.3850,  1.5833,  3.4622,  0.00,   0.0
2019/03/14 10:34:54.407,  59.763547432,  17.763344233,  165.4459,  5,  9,  3.2968,  1.9375,  5.7507,  1.3850,  1.5838,  3.4626,  0.00,   0.0
2019/03/14 10:34:55.407,  59.762864768,  17.764193998,   31.3759,  5,  9,  3.2968,  1.9376,  5.7518,  1.3852,  1.5842,  3.4631,  0.00,   0.0
2019/03/14 10:34:56.407,  59.763456523,  17.764256939,  158.7770,  5,  9,  3.2967,  1.9376,  5.7529,  1.3852,  1.5846,  3.4635,  0.00,   0.0
2019/03/14 10:34:57.407,  59.762631469,  17.763641481,   -5.8651,  5,  9,  3.2968,  1.9376,  5.7540,  1.3853,  1.5850,  3.4640,  0.00,   0.0
2019/03/14 10:34:58.407,  59.762905619,  17.763896417,  102.5734,  5,  9,  3.2968,  1.9377,  5.7551,  1.3854,  1.5854,  3.4644,  0.00,   0.0
2019/03/14 10:34:59.407,  59.763051565,  17.763331616,   90.4938,  5,  9,  3.2968,  1.9377,  5.7562,  1.3854,  1.5859,  3.4648,  0.00,   0.0
2019/03/14 10:35:00.407,  59.763251134,  17.764307366,  125.1969,  5,  9,  3.2967,  1.9377,  5.7573,  1.3855,  1.5863,  3.4652,  0.00,   0.0
2019/03/14 10:35:01.407,  59.763343372,  17.763566540,   97.3439,  5,  9,  3.2967,  1.9377,  5.7584,  1.3856,  1.5867,  3.4657,  0.00,   0.0
2019/03/14 10:35:02.407,  59.763006820,  17.764308959,   95.5168,  5,  9,  3.2968,  1.9378,  5.7595,  1.3856,  1.5871,  3.4662,  0.00,   0.0
2019/03/14 10:35:03.407,  59.762816428,  17.764123066,   64.7824,  5,  9,  3.2968,  1.9378,  5.7606,  1.3857,  1.5875,  3.4666,  0.00,   0.0
2019/03/14 10:35:04.407,  59.763108001,  17.763858258,  117.2375,  5,  9,  3.2967,  1.9378,  5.7617,  1.3858,  1.5880,  3.4670,  0.00,   0.0
2019/03/14 10:35:05.407,  59.762795287,  17.763640840,   47.2327,  5,  9,  3.2968,  1.9379,  5.7628,  1.3859,  1.5884,  3.4675,  0.00,   0.0
2019/03/14 10:35:06.407,  59.763082967,  17.763364312,   62.2521,  5,  9,  3.2967,  1.9379,  5.7639,  1.3859,  1.5888,  3.4679,  0.00,   0.0
2019/03/14 10:35:07.407,  59.763250942,  17.764084187,   93.4459,  5,  9,  3.2967,  1.9379,  5.7650,  1.3860,  1.5892,  3.4684,  0.00,   0.0
2019/03/14 10:35:08.407,  59.763574078,  17.764230661,   68.5000,  5,  9,  3.2967,  1.9379,  5.7661,  1.3860,  1.5896,  3.4688,  0.00,   0.0
2019/03/14 10:35:09.407,  59.763144571,  17.763343804,   22.8785,  5,  9,  3.2967,  1.9380,  5.7672,  1.3861,  1.5901,  3.4693,  0.00,   0.0
2019/03/14 10:35:10.407,  59.763321994,  17.764318743,  160.4742,  5,  9,  3.2967,  1.9380,  5.7683,  1.3862,  1.5905,  3.4697,  0.00,   0.0
2019/03/14 10:35:11.407,  59.763165389,  17.763413711,   36.1181,  5,  9,  3.2967,  1.9380,  5.7694,  1.3863,  1.5909,  3.4701,  0.00,   0.0
2019/03/14 10:35:12.407,  59.763338655,  17.764088705,   67.1867,  5,  9,  3.2967,  1.9380,  5.7705,  1.3863,  1.5913,  3.4706,  0.00,   0.0
2019/03/14 10:35:13.407,  59.762731231,  17.763378106, -103.7152,  5,  9,  3.2967,  1.9381,  5.7716,  1.3864,  1.5918,  3.4711,  0.00,   0.0
2019/03/14 10:35:14.407,  59.763046386,  17.764587166,   15.0652,  5,  9,  3.2967,  1.9381,  5.7727,  1.3865,  1.5922,  3.4715,  0.00,   0.0
2019/03/14 10:35:15.407,  59.762563262,  17.763440871,  -77.9447,  5,  9,  3.2967,  1.9381,  5.7738,  1.3866,  1.5926,  3.4720,  0.00,   0.0
2019/03/14 10:35:16.407,  59.763057756,  17.763811768,   55.3082,  5,  9,  3.2967,  1.9382,  5.7749,  1.3866,  1.5930,  3.4724,  0.00,   0.0
2019/03/14 10:35:17.407,  59.762964465,  17.763873183,   28.8140,  5,  9,  3.2967,  1.9382,  5.7760,  1.3867,  1.5934,  3.4728,  0.00,   0.0
2019/03/14 10:35:18.407,  59.762801568,  17.763586631,    4.1397,  5,  9,  3.2967,  1.9382,  5.7771,  1.3868,  1.5939,  3.4733,  0.00,   0.0
2019/03/14 10:35:19.407,  59.763500456,  17.764341902,  137.6649,  5,  9,  3.2966,  1.9382,  5.7782,  1.3868,  1.5943,  3.4737,  0.00,   0.0
2019/03/14 10:35:20.407,  59.763290214,  17.762935483,  -21.2109,  5,  9,  3.2966,  1.9383,  5.7793,  1.3869,  1.5947,  3.4741,  0.00,   0.0
2019/03/14 10:35:21.407,  59.762959610,  17.763232865,    4.8485,  5,  9,  3.2967,  1.9383,  5.7804,  1.3870,  1.5951,  3.4746,  0.00,   0.0
2019/03/14 10:35:22.407,  59.762889446,  17.763603867,    6.9029,  5,  9,  3.2967,  1.9383,  5.7815,  1.3871,  1.5956,  3.4751,  0.00,   0.0
2019/03/14 10:35:23.407,  59.762634697,  17.763415373,  -88.7561,  5,  9,  3.2967,  1.9384,  5.7826,  1.3871,  1.5960,  3.4755,  0.00,   0.0
2019/03/14 10:35:24.407,  59.762759134,  17.763481947,   -8.9269,  5,  9,  3.2967,  1.9384,  5.7837,  1.3872,  1.5964,  3.4760,  0.00,   0.0
2019/03/14 10:35:25.407,  59.763161253,  17.763715773,   12.7295,  5,  8,  3.6203,  2.4882,  6.3585,  2.0636,  2.5821,  4.0043,  0.00,   0.0
2019/03/14 10:35:26.407,  59.762846971,  17.763521197,   18.4945,  5,  8,  3.6200,  2.4880,  6.3591,  2.0633,  2.5819,  4.0042,  0.00,   0.0
2019/03/14 10:35:27.407,  59.763239989,  17.763823211,   79.6491,  5,  9,  3.2966,  1.9385,  5.7870,  1.3874,  1.5976,  3.4773,  0.00,   0.0
2019/03/14 10:35:28.407,  59.763002717,  17.763050342,   11.3158,  5,  9,  3.2966,  1.9385,  5.7881,  1.3875,  1.5981,  3.4777,  0.00,   0.0
2019/03/14 10:35:29.407,  59.762888024,  17.763906006,   34.0915,  5,  9,  3.2966,  1.9385,  5.7893,  1.3876,  1.5985,  3.4782,  0.00,   0.0
2019/03/14 10:35:30.407,  59.763222365,  17.763353962,  106.9136,  5,  9,  3.2966,  1.9385,  5.7903,  1.3876,  1.5989,  3.4786,  0.00,   0.0
2019/03/14 10:35:31.407,  59.763015252,  17.764188308,  104.3127,  5,  9,  3.2966,  1.9386,  5.7915,  1.3877,  1.5993,  3.4791,  0.00,   0.0
2019/03/14 10:35:32.407,  59.763172410,  17.763171634,    0.7854,  5,  9,  3.2966,  1.9386,  5.7926,  1.3878,  1.5998,  3.4795,  0.00,   0.0
2019/03/14 10:35:33.407,  59.763208861,  17.763906354,   58.8431,  5,  9,  3.2966,  1.9386,  5.7937,  1.3878,  1.6002,  3.4799,  0.00,   0.0
2019/03/14 10:35:34.407,  59.763279141,  17.763758186,   92.4818,  5,  9,  3.2966,  1.9387,  5.7948,  1.3879,  1.6006,  3.4804,  0.00,   0.0
2019/03/14 10:35:35.407,  59.763543631,  17.764344021,  152.1936,  5,  9,  3.2965,  1.9387,  5.7959,  1.3880,  1.6010,  3.4808,  0.00,   0.0
2019/03/14 10:35:36.407,  59.762705508,  17.763271076,   67.6696,  5,  9,  3.2966,  1.9387,  5.7970,  1.3881,  1.6015,  3.4813,  0.00,   0.0
2019/03/14 10:35:37.407,  59.763341602,  17.763330416,   97.8356,  5,  9,  3.2965,  1.9387,  5.7981,  1.3881,  1.6019,  3.4817,  0.00,   0.0
2019/03/14 10:35:38.407,  59.763063906,  17.763896926,   47.4602,  5,  9,  3.2966,  1.9388,  5.7992,  1.3882,  1.6023,  3.4822,  0.00,   0.0
2019/03/14 10:35:39.407,  59.763376371,  17.763730872,  146.1161,  5,  9,  3.2965,  1.9388,  5.8003,  1.3882,  1.6027,  3.4826,  0.00,   0.0
2019/03/14 10:35:40.407,  59.763069184,  17.763364216,   35.0322,  5,  9,  3.2966,  1.9388,  5.8015,  1.3883,  1.6031,  3.4831,  0.00,   0.0
2019/03/14 10:35:41.407,  59.762908806,  17.763491876,   72.1182,  5,  9,  3.2966,  1.9389,  5.8026,  1.3884,  1.6035,  3.4835,  0.00,   0.0
2019/03/14 10:35:42.407,  59.762885546,  17.763623021,  -14.0370,  5,  9,  3.2966,  1.9389,  5.8037,  1.3885,  1.6040,  3.4840,  0.00,   0.0
2019/03/14 10:35:43.407,  59.763396888,  17.764009747,  160.0854,  5,  9,  3.2965,  1.9389,  5.8048,  1.3885,  1.6044,  3.4844,  0.00,   0.0
2019/03/14 10:35:44.407,  59.762583256,  17.763384917,   -2.6401,  5,  9,  3.2966,  1.9390,  5.8059,  1.3886,  1.6048,  3.4849,  0.00,   0.0
2019/03/14 10:35:45.407,  59.763444217,  17.763695495,  155.6523,  5,  8,  3.6138,  2.4850,  6.3703,  2.0567,  2.5783,  4.0032,  0.00,   0.0
2019/03/14 10:35:46.407,  59.763504845,  17.764254902,  112.1485,  5,  8,  3.6135,  2.4849,  6.3709,  2.0563,  2.5781,  4.0031,  0.00,   0.0
2019/03/14 10:35:47.407,  59.763457496,  17.764380528,  110.9937,  5,  8,  3.6132,  2.4847,  6.3715,  2.0560,  2.5779,  4.0031,  0.00,   0.0
2019/03/14 10:35:48.407,  59.762999511,  17.763811308,   82.8693,  5,  8,  3.6129,  2.4846,  6.3721,  2.0557,  2.5777,  4.0031,  0.00,   0.0
2019/03/14 10:35:49.407,  59.763285541,  17.763114216,  111.3338,  5,  8,  3.6126,  2.4844,  6.3727,  2.0553,  2.5775,  4.0030,  0.00,   0.0
2019/03/14 10:35:50.407,  59.763286565,  17.763691646,  215.0598,  5,  9,  3.2965,  1.9391,  5.8125,  1.3890,  1.6073,  3.4875,  0.00,   0.0
2019/03/14 10:35:51.407,  59.763041652,  17.763523858,   34.0638,  5,  9,  3.2965,  1.9391,  5.8137,  1.3891,  1.6078,  3.4880,  0.00,   0.0
2019/03/14 10:35:52.407,  59.763271512,  17.763995910,   51.7461,  5,  8,  3.6116,  2.4840,  6.3745,  2.0543,  2.5770,  4.0028,  0.00,   0.0
2019/03/14 10:35:53.407,  59.762936306,  17.764095572,  -10.0551,  5,  8,  3.6113,  2.4838,  6.3751,  2.0540,  2.5768,  4.0028,  0.00,   0.0
2019/03/14 10:35:54.407,  59.763027020,  17.763713279,   74.6855,  5,  8,  3.6110,  2.4837,  6.3757,  2.0536,  2.5766,  4.0028,  0.00,   0.0
2019/03/14 10:35:55.407,  59.762638925,  17.763634414,   12.9291,  5,  8,  3.6107,  2.4835,  6.3763,  2.0533,  2.5764,  4.0027,  0.00,   0.0
2019/03/14 10:35:56.407,  59.762884207,  17.763542509,  134.6373,  5,  8,  3.6104,  2.4833,  6.3768,  2.0529,  2.5762,  4.0027,  0.00,   0.0
2019/03/14 10:35:57.407,  59.763486705,  17.764688631,  225.6626,  5,  8,  3.6100,  2.4832,  6.3774,  2.0525,  2.5760,  4.0025,  0.00,   0.0
2019/03/14 10:35:58.407,  59.763688254,  17.764190329,  225.6763,  5,  8,  3.6096,  2.4830,  6.3780,  2.0522,  2.5758,  4.0025,  0.00,   0.0
2019/03/14 10:35:59.407,  59.763191933,  17.763847034,  102.3085,  5,  8,  3.6094,  2.4829,  6.3787,  2.0519,  2.5756,  4.0025,  0.00,   0.0
2019/03/14 10:36:00.407,  59.763471970,  17.764148545,  218.1386,  5,  8,  3.6090,  2.4827,  6.3792,  2.0515,  2.5754,  4.0024,  0.00,   0.0
2019/03/14 10:36:01.407,  59.763327753,  17.763634300,  156.9321,  5,  8,  3.6087,  2.4826,  6.3798,  2.0512,  2.5752,  4.0024,  0.00,   0.0
2019/03/14 10:36:02.407,  59.763524085,  17.763318060,  156.3616,  5,  8,  3.6084,  2.4824,  6.3804,  2.0508,  2.5750,  4.0023,  0.00,   0.0
2019/03/14 10:36:03.407,  59.763226482,  17.763366931,  148.3354,  5,  8,  3.6081,  2.4822,  6.3810,  2.0505,  2.5748,  4.0023,  0.00,   0.0
2019/03/14 10:36:04.407,  59.763196837,  17.763229318,  151.1969,  5,  8,  3.6078,  2.4821,  6.3816,  2.0501,  2.5747,  4.0022,  0.00,   0.0
2019/03/14 10:36:05.407,  59.763452153,  17.763170487,  109.1690,  5,  8,  3.6074,  2.4819,  6.3822,  2.0498,  2.5745,  4.0022,  0.00,   0.0
2019/03/14 10:36:06.407,  59.763355288,  17.763968349,   78.9147,  5,  7,  4.9102,  2.4826,  8.2941,  2.1017,  2.6404,  5.8019,  0.00,   0.0
2019/03/14 10:36:07.407,  59.762471063,  17.763637084,  -92.1935,  5,  7,  4.9089,  2.4825,  8.2931,  2.1008,  2.6395,  5.8004,  0.00,   0.0
2019/03/14 10:36:08.407,  59.762902441,  17.764017084,   31.8982,  5,  7,  4.9072,  2.4823,  8.2919,  2.0999,  2.6386,  5.7987,  0.00,   0.0
2019/03/14 10:36:09.407,  59.762682985,  17.763869500,    1.1135,  5,  8,  3.6062,  2.4813,  6.3847,  2.0484,  2.5737,  4.0020,  0.00,   0.0
2019/03/14 10:36:10.407,  59.763448282,  17.763819892,  141.9582,  5,  8,  3.6058,  2.4812,  6.3852,  2.0480,  2.5735,  4.0019,  0.00,   0.0
2019/03/14 10:36:11.407,  59.763177962,  17.764110597,  103.1133,  5,  8,  3.6056,  2.4810,  6.3858,  2.0477,  2.5733,  4.0019,  0.00,   0.0
2019/03/14 10:36:12.407,  59.763033572,  17.764110649,   66.0575,  5,  8,  3.6053,  2.4809,  6.3865,  2.0474,  2.5731,  4.0019,  0.00,   0.0
2019/03/14 10:36:13.407,  59.763984548,  17.764408201,  171.5350,  5,  8,  3.6048,  2.4807,  6.3870,  2.0470,  2.5729,  4.0017,  0.00,   0.0
2019/03/14 10:36:14.407,  59.763165441,  17.764264822,  109.4889,  5,  9,  3.2964,  1.9398,  5.8394,  1.3907,  1.6174,  3.4983,  0.00,   0.0
2019/03/14 10:36:15.407,  59.762475806,  17.763297790,  -17.1173,  5,  9,  3.2964,  1.9399,  5.8405,  1.3908,  1.6179,  3.4988,  0.00,   0.0
2019/03/14 10:36:16.407,  59.763011233,  17.764212054,   -9.7721,  5,  9,  3.2964,  1.9399,  5.8417,  1.3909,  1.6183,  3.4992,  0.00,   0.0
2019/03/14 10:36:17.407,  59.763035292,  17.763557094,   -8.6037,  5,  9,  3.2964,  1.9399,  5.8428,  1.3909,  1.6187,  3.4996,  0.00,   0.0
2019/03/14 10:36:18.407,  59.762644768,  17.763798890,  -87.6623,  5,  9,  3.2964,  1.9399,  5.8439,  1.3910,  1.6191,  3.5001,  0.00,   0.0
2019/03/14 10:36:19.407,  59.763116160,  17.763548863,  -16.6379,  5,  9,  3.2964,  1.9400,  5.8450,  1.3911,  1.6196,  3.5005,  0.00,   0.0
2019/03/14 10:36:20.407,  59.762974511,  17.763583970,  -17.3938,  5,  9,  3.2964,  1.9400,  5.8462,  1.3911,  1.6200,  3.5010,  0.00,   0.0
2019/03/14 10:36:21.407,  59.763203075,  17.763729554,   89.5946,  5,  9,  3.2963,  1.9400,  5.8473,  1.3912,  1.6204,  3.5014,  0.00,   0.0
2019/03/14 10:36:22.407,  59.762924402,  17.762832660,  -75.1381,  5,  9,  3.2964,  1.9400,  5.8484,  1.3913,  1.6208,  3.5019,  0.00,   0.0
2019/03/14 10:36:23.407,  59.763336986,  17.763919557,   91.4780,  5,  9,  3.2963,  1.9401,  5.8495,  1.3913,  1.6212,  3.5023,  0.00,   0.0
2019/03/14 10:36:24.407,  59.762565488,  17.763572978,   -2.5350,  5,  9,  3.2964,  1.9401,  5.8506,  1.3914,  1.6217,  3.5028,  0.00,   0.0
2019/03/14 10:36:25.407,  59.763522305,  17.763871370,  104.5305,  5,  9,  3.2963,  1.9401,  5.8518,  1.3915,  1.6221,  3.5032,  0.00,   0.0
2019/03/14 10:36:26.407,  59.762825526,  17.763987467,  -11.3115,  5,  9,  3.2964,  1.9402,  5.8529,  1.3916,  1.6225,  3.5037,  0.00,   0.0
2019/03/14 10:36:27.407,  59.763437654,  17.764283577,  112.7916,  5,  9,  3.2963,  1.9402,  5.8540,  1.3916,  1.6229,  3.5041,  0.00,   0.0
2019/03/14 10:36:28.407,  59.762952909,  17.763758569,   79.4272,  5,  9,  3.2963,  1.9402,  5.8551,  1.3917,  1.6233,  3.5046,  0.00,   0.0
2019/03/14 10:36:29.407,  59.763717950,  17.763688656,  225.5119,  5,  9,  3.2962,  1.9402,  5.8562,  1.3917,  1.6237,  3.5050,  0.00,   0.0
2019/03/14 10:36:30.407,  59.762883832,  17.763705651,   29.9432,  5,  9,  3.2963,  1.9403,  5.8574,  1.3918,  1.6242,  3.5055,  0.00,   0.0
2019/03/14 10:36:31.407,  59.763075705,  17.764070070,   40.4934,  5,  9,  3.2963,  1.9403,  5.8585,  1.3919,  1.6246,  3.5059,  0.00,   0.0
2019/03/14 10:36:32.407,  59.762987560,  17.764096013,  122.9506,  5,  9,  3.2963,  1.9403,  5.8596,  1.3920,  1.6250,  3.5064,  0.00,   0.0
2019/03/14 10:36:33.407,  59.762686224,  17.763844439,   19.1937,  5,  9,  3.2963,  1.9404,  5.8608,  1.3921,  1.6254,  3.5069,  0.00,   0.0
2019/03/14 10:36:34.407,  59.763369074,  17.763619026,  108.3585,  5,  9,  3.2963,  1.9404,  5.8619,  1.3921,  1.6259,  3.5073,  0.00,   0.0
2019/03/14 10:36:35.407,  59.762728017,  17.763303043,   15.7272,  5,  9,  3.2963,  1.9404,  5.8630,  1.3922,  1.6263,  3.5078,  0.00,   0.0
2019/03/14 10:36:36.407,  59.763379339,  17.763396270,   50.9646,  5,  9,  3.2963,  1.9405,  5.8642,  1.3922,  1.6267,  3.5082,  0.00,   0.0
2019/03/14 10:36:37.407,  59.763236589,  17.764109110,   98.0584,  5,  9,  3.2963,  1.9405,  5.8653,  1.3923,  1.6271,  3.5086,  0.00,   0.0
2019/03/14 10:36:38.407,  59.762616340,  17.763183474,   38.6339,  5,  9,  3.2963,  1.9405,  5.8664,  1.3924,  1.6276,  3.5091,  0.00,   0.0
2019/03/14 10:36:39.407,  59.763455294,  17.764322560,   82.1237,  5,  9,  3.2962,  1.9405,  5.8675,  1.3925,  1.6279,  3.5095,  0.00,   0.0
2019/03/14 10:36:40.407,  59.763077060,  17.763595149,  123.6227,  5,  9,  3.2963,  1.9406,  5.8687,  1.3925,  1.6284,  3.5100,  0.00,   0.0
2019/03/14 10:36:41.407,  59.762569520,  17.763329644,   69.6041,  5,  9,  3.2963,  1.9406,  5.8698,  1.3926,  1.6288,  3.5105,  0.00,   0.0
2019/03/14 10:36:42.407,  59.763142397,  17.763765786,   65.1918,  5,  9,  3.2963,  1.9406,  5.8709,  1.3927,  1.6292,  3.5109,  0.00,   0.0
2019/03/14 10:36:43.407,  59.762504761,  17.763449847,  -26.7288,  5,  9,  3.2963,  1.9407,  5.8721,  1.3928,  1.6297,  3.5114,  0.00,   0.0
2019/03/14 10:36:44.407,  59.763512058,  17.763334914,  191.8770,  5,  9,  3.2962,  1.9407,  5.8732,  1.3928,  1.6301,  3.5118,  0.00,   0.0
2019/03/14 10:36:45.407,  59.762918534,  17.763134408,   72.4501,  5,  9,  3.2963,  1.9407,  5.8743,  1.3929,  1.6305,  3.5123,  0.00,   0.0
2019/03/14 10:36:46.407,  59.763464064,  17.764470320,  142.2908,  5,  9,  3.2962,  1.9408,  5.8755,  1.3929,  1.6309,  3.5127,  0.00,   0.0
2019/03/14 10:36:47.407,  59.763509403,  17.763770446,  147.7010,  5,  9,  3.2962,  1.9408,  5.8766,  1.3930,  1.6313,  3.5131,  0.00,   0.0
2019/03/14 10:36:48.407,  59.763221692,  17.763837281,  107.2216,  5,  9,  3.2962,  1.9408,  5.8777,  1.3931,  1.6317,  3.5136,  0.00,   0.0
2019/03/14 10:36:49.407,  59.763094910,  17.763448716,   49.5921,  5,  9,  3.2962,  1.9408,  5.8789,  1.3932,  1.6322,  3.5140,  0.00,   0.0
2019/03/14 10:36:50.407,  59.762981646,  17.763129330,   71.5917,  5,  9,  3.2962,  1.9409,  5.8800,  1.3932,  1.6326,  3.5145,  0.00,   0.0
2019/03/14 10:36:51.407,  59.763386466,  17.764456170,  101.8866,  5,  9,  3.2962,  1.9409,  5.8811,  1.3933,  1.6330,  3.5149,  0.00,   0.0
2019/03/14 10:36:52.407,  59.763347645,  17.763967076,  114.9232,  5,  9,  3.2962,  1.9409,  5.8822,  1.3934,  1.6334,  3.5154,  0.00,   0.0
2019/03/14 10:36:53.407,  59.763632260,  17.764450866,  139.2104,  5,  9,  3.2961,  1.9410,  5.8834,  1.3934,  1.6338,  3.5158,  0.00,   0.0
2019/03/14 10:36:54.407,  59.762776683,  17.763914661,  -43.6202,  5,  9,  3.2962,  1.9410,  5.8845,  1.3935,  1.6343,  3.5163,  0.00,   0.0
2019/03/14 10:36:55.407,  59.763458654,  17.764169740,  105.3320,  5,  9,  3.2962,  1.9410,  5.8857,  1.3936,  1.6347,  3.5167,  0.00,   0.0
2019/03/14 10:36:56.407,  59.762553026,  17.763861099, -129.9011,  5,  9,  3.2963,  1.9411,  5.8868,  1.3937,  1.6351,  3.5173,  0.00,   0.0
2019/03/14 10:36:57.407,  59.762685441,  17.763791557,  -16.1163,  5,  9,  3.2962,  1.9411,  5.8879,  1.3937,  1.6356,  3.5177,  0.00,   0.0
2019/03/14 10:36:58.407,  59.763340760,  17.764390248,   -8.4258,  5,  9,  3.2962,  1.9411,  5.8891,  1.3938,  1.6360,  3.5181,  0.00,   0.0
2019/03/14 10:36:59.407,  59.762956504,  17.763765204,   31.7413,  5,  9,  3.2962,  1.9412,  5.8902,  1.3939,  1.6364,  3.5186,  0.00,   0.0
2019/03/14 10:37:00.407,  59.762663389,  17.763809461,  -15.6326,  5,  9,  3.2962,  1.9412,  5.8913,  1.3939,  1.6368,  3.5191,  0.00,   0.0
2019/03/14 10:37:01.407,  59.763259917,  17.764153951,   68.6109,  5,  9,  3.2962,  1.9412,  5.8925,  1.3940,  1.6372,  3.5195,  0.00,   0.0
2019/03/14 10:37:02.407,  59.762988926,  17.764177914,   30.9623,  5,  9,  3.2962,  1.9412,  5.8936,  1.3941,  1.6376,  3.5199,  0.00,   0.0
2019/03/14 10:37:03.407,  59.762954206,  17.763688145,   44.9778,  5,  9,  3.2962,  1.9413,  5.8947,  1.3941,  1.6381,  3.5204,  0.00,   0.0
2019/03/14 10:37:04.407,  59.763038167,  17.763735036,   29.5199,  5,  9,  3.2962,  1.9413,  5.8959,  1.3942,  1.6385,  3.5208,  0.00,   0.0
2019/03/14 10:37:05.407,  59.763212075,  17.763879411,   73.5322,  5,  9,  3.2961,  1.9413,  5.8970,  1.3943,  1.6389,  3.5213,  0.00,   0.0
2019/03/14 10:37:06.407,  59.763440299,  17.763933081,   67.7416,  5,  9,  3.2961,  1.9414,  5.8981,  1.3943,  1.6393,  3.5217,  0.00,   0.0
2019/03/14 10:37:07.407,  59.763687703,  17.763907096,  102.6359,  5,  9,  3.2961,  1.9414,  5.8993,  1.3944,  1.6397,  3.5221,  0.00,   0.0
2019/03/14 10:37:08.407,  59.762885773,  17.763687933,    1.7809,  5,  9,  3.2962,  1.9414,  5.9004,  1.3945,  1.6402,  3.5227,  0.00,   0.0
2019/03/14 10:37:09.407,  59.763495034,  17.764063547,   89.3362,  5,  9,  3.2961,  1.9414,  5.9016,  1.3945,  1.6406,  3.5231,  0.00,   0.0
2019/03/14 10:37:10.407,  59.763410608,  17.763553782,   76.8975,  5,  9,  3.2961,  1.9415,  5.9027,  1.3946,  1.6410,  3.5235,  0.00,   0.0
2019/03/14 10:37:11.407,  59.762520260,  17.763226664,  -77.9417,  5,  9,  3.2962,  1.9415,  5.9039,  1.3947,  1.6415,  3.5241,  0.00,   0.0
2019/03/14 10:37:12.407,  59.763428967,  17.763851247,   81.6323,  5,  9,  3.2961,  1.9415,  5.9050,  1.3947,  1.6419,  3.5244,  0.00,   0.0
2019/03/14 10:37:13.407,  59.763006151,  17.763635007,   13.1246,  5,  9,  3.2961,  1.9416,  5.9061,  1.3948,  1.6423,  3.5249,  0.00,   0.0
2019/03/14 10:37:14.407,  59.763346034,  17.763907476,  138.4494,  5,  9,  3.2961,  1.9416,  5.9072,  1.3949,  1.6427,  3.5253,  0.00,   0.0
2019/03/14 10:37:15.407,  59.762995955,  17.763520340,   60.6631,  5,  9,  3.2961,  1.9416,  5.9084,  1.3950,  1.6431,  3.5258,  0.00,   0.0
2019/03/14 10:37:16.407,  59.762647041,  17.763173119,  -65.1954,  5,  9,  3.2962,  1.9417,  5.9096,  1.3951,  1.6436,  3.5263,  0.00,   0.0
2019/03/14 10:37:17.407,  59.763164095,  17.764200778,   47.2410,  5,  9,  3.2961,  1.9417,  5.9107,  1.3951,  1.6440,  3.5267,  0.00,   0.0
2019/03/14 10:37:18.407,  59.763231885,  17.763394629,   58.2058,  5,  9,  3.2961,  1.9417,  5.9118,  1.3952,  1.6444,  3.5272,  0.00,   0.0
2019/03/14 10:37:19.407,  59.762114458,  17.763787269,  -38.7161,  5,  9,  3.2962,  1.9418,  5.9130,  1.3953,  1.6448,  3.5277,  0.00,   0.0
2019/03/14 10:37:20.407,  59.762897295,  17.763845636,   23.8489,  5,  9,  3.2961,  1.9418,  5.9141,  1.3953,  1.6452,  3.5281,  0.00,   0.0
2019/03/14 10:37:21.407,  59.762679732,  17.764064335,   -3.6742,  5,  9,  3.2961,  1.9418,  5.9153,  1.3954,  1.6457,  3.5286,  0.00,   0.0
2019/03/14 10:37:22.407,  59.762967157,  17.763734239,  140.4049,  5,  9,  3.2961,  1.9419,  5.9164,  1.3955,  1.6461,  3.5290,  0.00,   0.0
2019/03/14 10:37:23.407,  59.762915346,  17.763124369,   -9.9178,  5,  9,  3.2961,  1.9419,  5.9175,  1.3955,  1.6465,  3.5295,  0.00,   0.0
2019/03/14 10:37:24.407,  59.762648431,  17.763458558,   61.1589,  5,  9,  3.2961,  1.9419,  5.9187,  1.3956,  1.6469,  3.5299,  0.00,   0.0
2019/03/14 10:37:25.407,  59.762883727,  17.763820565,   -2.3805,  5,  9,  3.2961,  1.9419,  5.9198,  1.3957,  1.6473,  3.5304,  0.00,   0.0
2019/03/14 10:37:26.407,  59.762805031,  17.763666881,  -50.2445,  5,  9,  3.2961,  1.9420,  5.9210,  1.3957,  1.6478,  3.5308,  0.00,   0.0
2019/03/14 10:37:27.407,  59.762558773,  17.763474197,  -34.9009,  5,  9,  3.2961,  1.9420,  5.9221,  1.3958,  1.6482,  3.5313,  0.00,   0.0
2019/03/14 10:37:28.407,  59.763231098,  17.764245239,   53.2666,  5,  9,  3.2960,  1.9420,  5.9232,  1.3959,  1.6486,  3.5317,  0.00,   0.0
2019/03/14 10:37:29.407,  59.762813766,  17.764027192,  -14.1237,  5,  9,  3.2961,  1.9421,  5.9244,  1.3959,  1.6490,  3.5322,  0.00,   0.0
2019/03/14 10:37:30.407,  59.763441883,  17.764123060,  126.2623,  5,  9,  3.2960,  1.9421,  5.9255,  1.3960,  1.6494,  3.5326,  0.00,   0.0
2019/03/14 10:37:31.407,  59.763163186,  17.764045540,    9.6359,  5,  9,  3.2960,  1.9421,  5.9267,  1.3961,  1.6499,  3.5331,  0.00,   0.0
2019/03/14 10:37:32.407,  59.763715512,  17.764104653,   50.4486,  5,  9,  3.2960,  1.9421,  5.9278,  1.3961,  1.6503,  3.5335,  0.00,   0.0
2019/03/14 10:37:33.407,  59.763379977,  17.764610400,  131.7892,  5,  9,  3.2960,  1.9422,  5.9290,  1.3962,  1.6507,  3.5339,  0.00,   0.0
2019/03/14 10:37:34.407,  59.763294011,  17.763518858,   71.2740,  5,  9,  3.2960,  1.9422,  5.9301,  1.3963,  1.6511,  3.5344,  0.00,   0.0
2019/03/14 10:37:35.407,  59.762849690,  17.763936531,   10.5549,  5,  9,  3.2961,  1.9423,  5.9313,  1.3964,  1.6516,  3.5349,  0.00,   0.0
2019/03/14 10:37:36.407,  59.763224335,  17.763859952,  160.2050,  5,  9,  3.2960,  1.9423,  5.9324,  1.3964,  1.6520,  3.5353,  0.00,   0.0
2019/03/14 10:37:37.407,  59.763187094,  17.764830905,  120.3690,  5,  9,  3.2960,  1.9423,  5.9335,  1.3965,  1.6524,  3.5358,  0.00,   0.0
2019/03/14 10:37:38.407,  59.763190291,  17.764194276,  142.6718,  5,  9,  3.2960,  1.9423,  5.9347,  1.3965,  1.6528,  3.5362,  0.00,   0.0
2019/03/14 10:37:39.407,  59.762730253,  17.763911708,  103.3851,  5,  9,  3.2960,  1.9424,  5.9358,  1.3966,  1.6532,  3.5367,  0.00,   0.0
2019/03/14 10:37:40.407,  59.763249013,  17.763960912,   96.1126,  5,  9,  3.2960,  1.9424,  5.9370,  1.3967,  1.6536,  3.5371,  0.00,   0.0
2019/03/14 10:37:41.407,  59.762265365,  17.763037152,  -64.8834,  5,  9,  3.2961,  1.9425,  5.9382,  1.3968,  1.6541,  3.5377,  0.00,   0.0
2019/03/14 10:37:42.407,  59.763580196,  17.763990412,   80.3031,  5,  9,  3.2959,  1.9425,  5.9393,  1.3968,  1.6545,  3.5380,  0.00,   0.0
2019/03/14 10:37:43.407,  59.763263766,  17.763586417,   45.5996,  5,  9,  3.2960,  1.9425,  5.9404,  1.3969,  1.6549,  3.5385,  0.00,   0.0
2019/03/14 10:37:44.407,  59.762810519,  17.763686761,   67.7846,  5,  9,  3.2960,  1.9425,  5.9416,  1.3970,  1.6553,  3.5390,  0.00,   0.0
2019/03/14 10:37:45.407,  59.762908626,  17.763391542,   36.3217,  5,  9,  3.2960,  1.9426,  5.9427,  1.3970,  1.6558,  3.5394,  0.00,   0.0
2019/03/14 10:37:46.407,  59.762903255,  17.763861189,  -20.6733,  5,  9,  3.2960,  1.9426,  5.9439,  1.3971,  1.6562,  3.5399,  0.00,   0.0
2019/03/14 10:37:47.407,  59.763206598,  17.763475248,   74.4028,  5,  9,  3.2960,  1.9426,  5.9450,  1.3972,  1.6566,  3.5403,  0.00,   0.0
2019/03/14 10:37:48.407,  59.763241746,  17.763819311,   78.5581,  5,  9,  3.2960,  1.9427,  5.9462,  1.3972,  1.6570,  3.5408,  0.00,   0.0
2019/03/14 10:37:49.407,  59.763250945,  17.763767945,   85.0580,  5,  9,  3.2960,  1.9427,  5.9473,  1.3973,  1.6574,  3.5412,  0.00,   0.0
2019/03/14 10:37:50.407,  59.763301992,  17.763765069,  104.6632,  5,  9,  3.2959,  1.9427,  5.9485,  1.3974,  1.6579,  3.5417,  0.00,   0.0
2019/03/14 10:37:51.407,  59.763274324,  17.764002381,  168.7412,  5,  9,  3.2959,  1.9427,  5.9496,  1.3974,  1.6583,  3.5421,  0.00,   0.0
2019/03/14 10:37:52.407,  59.762696154,  17.763813207,  -36.5547,  5,  9,  3.2960,  1.9428,  5.9508,  1.3975,  1.6587,  3.5426,  0.00,   0.0
2019/03/14 10:37:53.407,  59.763342865,  17.763766951,  124.4018,  5,  9,  3.2959,  1.9428,  5.9519,  1.3976,  1.6591,  3.5430,  0.00,   0.0
2019/03/14 10:37:54.407,  59.762739007,  17.763834646,   99.4359,  5,  9,  3.2960,  1.9429,  5.9531,  1.3977,  1.6595,  3.5435,  0.00,   0.0
2019/03/14 10:37:55.407,  59.763326202,  17.763991595,  110.9430,  5,  9,  3.2959,  1.9429,  5.9542,  1.3977,  1.6600,  3.5439,  0.00,   0.0
2019/03/14 10:37:56.407,  59.762602101,  17.764029908,  -99.8017,  5,  9,  3.2960,  1.9429,  5.9554,  1.3978,  1.6604,  3.5445,  0.00,   0.0
2019/03/14 10:37:57.407,  59.763182109,  17.763873928,   -4.8062,  5,  9,  3.2959,  1.9429,  5.9566,  1.3979,  1.6608,  3.5449,  0.00,   0.0
2019/03/14 10:37:58.407,  59.762980579,  17.764605619,   67.3887,  5,  9,  3.2959,  1.9430,  5.9577,  1.3979,  1.6612,  3.5453,  0.00,   0.0
2019/03/14 10:37:59.407,  59.763538877,  17.764768352,  109.5006,  5,  9,  3.2959,  1.9430,  5.9588,  1.3980,  1.6616,  3.5457,  0.00,   0.0
2019/03/14 10:38:00.407,  59.762797413,  17.763536046,  -14.7265,  5,  9,  3.2960,  1.9430,  5.9600,  1.3981,  1.6621,  3.5463,  0.00,   0.0
2019/03/14 10:38:01.407,  59.763128812,  17.763663501,   37.1938,  5,  9,  3.2959,  1.9431,  5.9612,  1.3981,  1.6625,  3.5467,  0.00,   0.0
2019/03/14 10:38:02.407,  59.763129016,  17.764131608,  -18.7827,  5,  9,  3.2959,  1.9431,  5.9623,  1.3982,  1.6629,  3.5472,  0.00,   0.0
2019/03/14 10:38:03.407,  59.763200846,  17.764051622,   41.7945,  5,  9,  3.2959,  1.9431,  5.9635,  1.3983,  1.6633,  3.5476,  0.00,   0.0
2019/03/14 10:38:04.407,  59.763085398,  17.763846569,   27.6829,  5,  9,  3.2959,  1.9432,  5.9646,  1.3983,  1.6638,  3.5481,  0.00,   0.0
2019/03/14 10:38:05.407,  59.763167863,  17.763376562,   62.2868,  5,  9,  3.2959,  1.9432,  5.9658,  1.3984,  1.6642,  3.5485,  0.00,   0.0
2019/03/14 10:38:06.407,  59.763100017,  17.764326027,   93.4529,  5,  9,  3.2959,  1.9432,  5.9669,  1.3985,  1.6646,  3.5490,  0.00,   0.0
2019/03/14 10:38:07.407,  59.763206893,  17.763718679,  -12.9598,  5,  9,  3.2959,  1.9433,  5.9681,  1.3985,  1.6650,  3.5494,  0.00,   0.0
2019/03/14 10:38:08.407,  59.763327455,  17.763993840,   93.6194,  5,  9,  3.2959,  1.9433,  5.9692,  1.3986,  1.6654,  3.5499,  0.00,   0.0
2019/03/14 10:38:09.407,  59.764029799,  17.764031980,  140.8654,  5,  9,  3.2958,  1.9433,  5.9704,  1.3986,  1.6658,  3.5503,  0.00,   0.0
2019/03/14 10:38:10.407,  59.763588658,  17.764135043,  165.6108,  5,  9,  3.2958,  1.9433,  5.9715,  1.3987,  1.6663,  3.5508,  0.00,   0.0
2019/03/14 10:38:11.407,  59.762514356,  17.763570397,  -43.6131,  5,  9,  3.2959,  1.9434,  5.9727,  1.3988,  1.6667,  3.5513,  0.00,   0.0
2019/03/14 10:38:12.407,  59.763447291,  17.764195754,  123.0114,  5,  9,  3.2958,  1.9434,  5.9738,  1.3989,  1.6671,  3.5517,  0.00,   0.0
2019/03/14 10:38:13.407,  59.763201170,  17.764189414,   89.9871,  5,  9,  3.2959,  1.9434,  5.9750,  1.3989,  1.6675,  3.5522,  0.00,   0.0
2019/03/14 10:38:14.407,  59.763195737,  17.764002883,   25.5377,  5,  9,  3.2959,  1.9435,  5.9762,  1.3990,  1.6680,  3.5526,  0.00,   0.0
2019/03/14 10:38:15.407,  59.763159195,  17.763725510,   60.3617,  5,  9,  3.2959,  1.9435,  5.9773,  1.3991,  1.6684,  3.5531,  0.00,   0.0
2019/03/14 10:38:16.407,  59.762915000,  17.763537393,   44.6386,  5,  9,  3.2959,  1.9435,  5.9785,  1.3992,  1.6688,  3.5536,  0.00,   0.0
2019/03/14 10:38:17.407,  59.763028567,  17.763963772,   96.7744,  5,  9,  3.2959,  1.9436,  5.9796,  1.3992,  1.6692,  3.5540,  0.00,   0.0
2019/03/14 10:38:18.407,  59.763131931,  17.763906127,   54.3757,  5,  9,  3.2959,  1.9436,  5.9808,  1.3993,  1.6696,  3.5544,  0.00,   0.0
2019/03/14 10:38:19.407,  59.763216674,  17.763848979,    4.0914,  5,  9,  3.2958,  1.9436,  5.9820,  1.3994,  1.6701,  3.5549,  0.00,   0.0
2019/03/14 10:38:20.407,  59.763291081,  17.763875916,   65.2710,  5,  9,  3.2958,  1.9437,  5.9831,  1.3994,  1.6705,  3.5553,  0.00,   0.0
2019/03/14 10:38:21.407,  59.763343784,  17.764432004,  182.0872,  5,  9,  3.2958,  1.9437,  5.9843,  1.3995,  1.6709,  3.5558,  0.00,   0.0
2019/03/14 10:38:22.407,  59.763037936,  17.763398061,   53.5271,  5,  9,  3.2958,  1.9437,  5.9854,  1.3996,  1.6713,  3.5563,  0.00,   0.0
2019/03/14 10:38:23.407,  59.762958138,  17.764356880,  -43.8195,  5,  9,  3.2958,  1.9438,  5.9866,  1.3996,  1.6718,  3.5567,  0.00,   0.0
2019/03/14 10:38:24.407,  59.763468310,  17.764021447,   33.5998,  5,  9,  3.2958,  1.9438,  5.9878,  1.3997,  1.6722,  3.5572,  0.00,   0.0
2019/03/14 10:38:25.407,  59.763252315,  17.764178809,   84.1953,  5,  9,  3.2958,  1.9438,  5.9889,  1.3998,  1.6726,  3.5576,  0.00,   0.0
2019/03/14 10:38:26.407,  59.763147107,  17.763824280,   31.8551,  5,  9,  3.2958,  1.9439,  5.9901,  1.3998,  1.6730,  3.5581,  0.00,   0.0
2019/03/14 10:38:27.407,  59.762886394,  17.763635228,    8.7393,  5,  9,  3.2958,  1.9439,  5.9912,  1.3999,  1.6734,  3.5586,  0.00,   0.0
2019/03/14 10:38:28.407,  59.763716800,  17.764630086,   93.2746,  5,  9,  3.2957,  1.9439,  5.9924,  1.3999,  1.6738,  3.5590,  0.00,   0.0
2019/03/14 10:38:29.407,  59.763232135,  17.763292552,   -2.6390,  5,  9,  3.2958,  1.9439,  5.9936,  1.4000,  1.6743,  3.5595,  0.00,   0.0
2019/03/14 10:38:30.407,  59.762827710,  17.763458090,  -39.4821,  5,  9,  3.2958,  1.9440,  5.9947,  1.4001,  1.6747,  3.5600,  0.00,   0.0
2019/03/14 10:38:31.407,  59.763019301,  17.763849070,   40.8785,  5,  9,  3.2958,  1.9440,  5.9959,  1.4002,  1.6751,  3.5604,  0.00,   0.0
2019/03/14 10:38:32.407,  59.763486651,  17.763467038,  150.9799,  5,  9,  3.2958,  1.9440,  5.9970,  1.4002,  1.6755,  3.5608,  0.00,   0.0
2019/03/14 10:38:33.407,  59.762900545,  17.763594263,   19.7016,  5,  9,  3.2958,  1.9441,  5.9982,  1.4003,  1.6760,  3.5613,  0.00,   0.0
2019/03/14 10:38:34.407,  59.763321213,  17.763611618,   18.0902,  5,  9,  3.2958,  1.9441,  5.9994,  1.4004,  1.6764,  3.5617,  0.00,   0.0
2019/03/14 10:38:35.407,  59.762836231,  17.764090134,   20.9284,  5,  9,  3.2958,  1.9442,  6.0005,  1.4005,  1.6768,  3.5622,  0.00,   0.0
2019/03/14 10:38:36.407,  59.763363152,  17.764376575,  166.7194,  5,  9,  3.2958,  1.9442,  6.0017,  1.4005,  1.6772,  3.5626,  0.00,   0.0
2019/03/14 10:38:37.407,  59.763007977,  17.763263210,   60.3151,  5,  9,  3.2958,  1.9442,  6.0028,  1.4006,  1.6777,  3.5631,  0.00,   0.0
2019/03/14 10:38:38.407,  59.762675841,  17.763637878,   74.5771,  5,  9,  3.2958,  1.9443,  6.0040,  1.4007,  1.6781,  3.5636,  0.00,   0.0
2019/03/14 10:38:39.407,  59.763503040,  17.764452783,   81.8084,  5,  9,  3.2957,  1.9443,  6.0052,  1.4007,  1.6785,  3.5640,  0.00,   0.0
2019/03/14 10:38:40.407,  59.762972982,  17.763789379,   36.3409,  5,  9,  3.2958,  1.9443,  6.0063,  1.4008,  1.6789,  3.5645,  0.00,   0.0
2019/03/14 10:38:41.407,  59.762830639,  17.763279819,   17.7529,  5,  9,  3.2958,  1.9443,  6.0075,  1.4009,  1.6793,  3.5650,  0.00,   0.0
2019/03/14 10:38:42.407,  59.762979732,  17.764109076,   28.1683,  5,  9,  3.2958,  1.9444,  6.0087,  1.4009,  1.6797,  3.5654,  0.00,   0.0
2019/03/14 10:38:43.407,  59.763166142,  17.763997233,  165.8666,  5,  9,  3.2957,  1.9444,  6.0098,  1.4010,  1.6801,  3.5659,  0.00,   0.0
2019/03/14 10:38:44.407,  59.762606347,  17.763593230,  -20.3075,  5,  9,  3.2958,  1.9445,  6.0110,  1.4011,  1.6806,  3.5664,  0.00,   0.0
2019/03/14 10:38:45.407,  59.763194975,  17.763362965,    0.8864,  5,  9,  3.2957,  1.9445,  6.0122,  1.4011,  1.6810,  3.5668,  0.00,   0.0
2019/03/14 10:38:46.407,  59.762596307,  17.763650290,   53.7800,  5,  9,  3.2958,  1.9445,  6.0133,  1.4012,  1.6814,  3.5673,  0.00,   0.0
2019/03/14 10:38:47.407,  59.763304748,  17.763502735,   26.3988,  5,  9,  3.2957,  1.9445,  6.0145,  1.4012,  1.6819,  3.5677,  0.00,   0.0
2019/03/14 10:38:48.407,  59.762890195,  17.763805665,   19.5961,  5,  9,  3.2958,  1.9446,  6.0157,  1.4013,  1.6823,  3.5682,  0.00,   0.0
2019/03/14 10:38:49.407,  59.762979735,  17.763726053,   84.4757,  5,  9,  3.2957,  1.9446,  6.0168,  1.4014,  1.6827,  3.5686,  0.00,   0.0
2019/03/14 10:38:50.407,  59.763413688,  17.763991496,  121.7755,  5,  9,  3.2957,  1.9446,  6.0180,  1.4014,  1.6831,  3.5690,  0.00,   0.0
2019/03/14 10:38:51.407,  59.762789049,  17.763577558,  -37.0305,  5,  9,  3.2958,  1.9447,  6.0192,  1.4015,  1.6836,  3.5696,  0.00,   0.0
2019/03/14 10:38:52.407,  59.762964543,  17.763929429,  -44.4889,  5,  9,  3.2957,  1.9447,  6.0204,  1.4016,  1.6840,  3.5700,  0.00,   0.0
2019/03/14 10:38:53.407,  59.762903086,  17.763716573,  -10.5843,  5,  9,  3.2957,  1.9447,  6.0215,  1.4017,  1.6844,  3.5705,  0.00,   0.0
2019/03/14 10:38:54.407,  59.762415058,  17.763905186,  -85.0069,  5,  9,  3.2958,  1.9448,  6.0227,  1.4018,  1.6848,  3.5710,  0.00,   0.0
2019/03/14 10:38:55.407,  59.763146013,  17.764079776,    5.1555,  5,  9,  3.2957,  1.9448,  6.0238,  1.4018,  1.6852,  3.5714,  0.00,   0.0
2019/03/14 10:38:56.407,  59.762625716,  17.764365608,    1.2474,  5,  9,  3.2958,  1.9448,  6.0250,  1.4019,  1.6856,  3.5719,  0.00,   0.0
2019/03/14 10:38:57.407,  59.763211056,  17.763890423,  111.8237,  5,  9,  3.2957,  1.9449,  6.0262,  1.4019,  1.6860,  3.5723,  0.00,   0.0
2019/03/14 10:38:58.407,  59.762463089,  17.763891197,  -32.1801,  5,  9,  3.2958,  1.9449,  6.0274,  1.4020,  1.6865,  3.5728,  0.00,   0.0
2019/03/14 10:38:59.407,  59.763134498,  17.763594589,  100.0412,  5,  9,  3.2957,  1.9449,  6.0285,  1.4021,  1.6869,  3.5732,  0.00,   0.0
2019/03/14 10:39:00.407,  59.762677659,  17.764243158,   55.1643,  5,  9,  3.2957,  1.9450,  6.0297,  1.4021,  1.6873,  3.5737,  0.00,   0.0
2019/03/14 10:39:01.407,  59.763182279,  17.763876830,   63.2916,  5,  9,  3.2957,  1.9450,  6.0308,  1.4022,  1.6877,  3.5741,  0.00,   0.0
2019/03/14 10:39:02.407,  59.762546271,  17.763246052,  -52.3216,  5,  9,  3.2957,  1.9450,  6.0320,  1.4023,  1.6882,  3.5746,  0.00,   0.0
2019/03/14 10:39:03.407,  59.763214736,  17.763759280,   85.8820,  5,  9,  3.2957,  1.9451,  6.0332,  1.4023,  1.6886,  3.5750,  0.00,   0.0
2019/03/14 10:39:04.407,  59.762939822,  17.763417700,   11.4524,  5,  9,  3.2957,  1.9451,  6.0344,  1.4024,  1.6890,  3.5755,  0.00,   0.0
2019/03/14 10:39:05.407,  59.762543681,  17.763015235,   -2.8447,  5,  9,  3.2957,  1.9451,  6.0355,  1.4025,  1.6895,  3.5760,  0.00,   0.0
2019/03/14 10:39:06.407,  59.762809745,  17.763452484,  -65.0344,  5,  9,  3.2957,  1.9452,  6.0367,  1.4025,  1.6899,  3.5764,  0.00,   0.0
2019/03/14 10:39:07.407,  59.763486871,  17.764434826,   98.6946,  5,  9,  3.2956,  1.9452,  6.0379,  1.4026,  1.6902,  3.5768,  0.00,   0.0
2019/03/14 10:39:08.407,  59.763160991,  17.763836888,   63.0635,  5,  9,  3.2957,  1.9452,  6.0390,  1.4027,  1.6907,  3.5773,  0.00,   0.0
2019/03/14 10:39:09.407,  59.762944166,  17.763091368,  -11.2500,  5,  9,  3.2957,  1.9453,  6.0402,  1.4027,  1.6911,  3.5778,  0.00,   0.0
2019/03/14 10:39:10.407,  59.762687001,  17.763634601,   14.0882,  5,  9,  3.2957,  1.9453,  6.0414,  1.4028,  1.6915,  3.5783,  0.00,   0.0
2019/03/14 10:39:11.407,  59.763346838,  17.764195009,   64.8190,  5,  9,  3.2956,  1.9453,  6.0426,  1.4029,  1.6919,  3.5787,  0.00,   0.0
2019/03/14 10:39:12.407,  59.763129852,  17.763997788,   87.7676,  5,  9,  3.2956,  1.9454,  6.0437,  1.4029,  1.6923,  3.5791,  0.00,   0.0
2019/03/14 10:39:13.407,  59.762528169,  17.763755968,   43.2389,  5,  9,  3.2957,  1.9454,  6.0449,  1.4030,  1.6928,  3.5797,  0.00,   0.0
2019/03/14 10:39:14.407,  59.762977198,  17.763521127,   56.7172,  5,  9,  3.2956,  1.9454,  6.0461,  1.4031,  1.6932,  3.5801,  0.00,   0.0
2019/03/14 10:39:15.407,  59.762729421,  17.764243622,    1.7089,  5,  9,  3.2957,  1.9455,  6.0473,  1.4031,  1.6936,  3.5806,  0.00,   0.0
2019/03/14 10:39:16.407,  59.762681230,  17.763530283,   11.4200,  5,  9,  3.2957,  1.9455,  6.0484,  1.4032,  1.6941,  3.5810,  0.00,   0.0
2019/03/14 10:39:17.407,  59.762706807,  17.763990899,  -39.9197,  5,  9,  3.2957,  1.9455,  6.0496,  1.4033,  1.6945,  3.5815,  0.00,   0.0
2019/03/14 10:39:18.407,  59.762910601,  17.763881576,  102.2041,  5,  9,  3.2956,  1.9456,  6.0508,  1.4033,  1.6949,  3.5819,  0.00,   0.0
2019/03/14 10:39:19.407,  59.763439556,  17.764574727,   69.3463,  5,  9,  3.2956,  1.9456,  6.0519,  1.4034,  1.6953,  3.5823,  0.00,   0.0
2019/03/14 10:39:20.407,  59.763004534,  17.763630028,   27.6383,  5,  9,  3.2956,  1.9456,  6.0531,  1.4035,  1.6957,  3.5828,  0.00,   0.0
2019/03/14 10:39:21.407,  59.762854425,  17.763833654,   51.1574,  5,  9,  3.2956,  1.9457,  6.0543,  1.4035,  1.6961,  3.5833,  0.00,   0.0
2019/03/14 10:39:22.407,  59.763266042,  17.763989111,   47.7293,  5,  9,  3.2956,  1.9457,  6.0555,  1.4036,  1.6966,  3.5837,  0.00,   0.0
2019/03/14 10:39:23.407,  59.763307188,  17.764196507,  127.1503,  5,  9,  3.2956,  1.9457,  6.0566,  1.4036,  1.6970,  3.5842,  0.00,   0.0
2019/03/14 10:39:24.407,  59.762989195,  17.763678453,   56.0305,  5,  9,  3.2956,  1.9458,  6.0578,  1.4037,  1.6974,  3.5847,  0.00,   0.0
2019/03/14 10:39:25.407,  59.763018717,  17.763702976,   56.1710,  5,  9,  3.2956,  1.9458,  6.0590,  1.4038,  1.6978,  3.5851,  0.00,   0.0
2019/03/14 10:39:26.407,  59.762971300,  17.763733674,   92.8415,  5,  9,  3.2956,  1.9458,  6.0602,  1.4039,  1.6982,  3.5856,  0.00,   0.0
2019/03/14 10:39:28.407,  59.763456337,  17.764103567,   98.2345,  5,  9,  3.2955,  1.9459,  6.0625,  1.4040,  1.6991,  3.5865,  0.00,   0.0
2019/03/14 10:39:29.407,  59.763037537,  17.763681031,   30.8627,  5,  9,  3.2956,  1.9459,  6.0637,  1.4041,  1.6995,  3.5870,  0.00,   0.0
2019/03/14 10:39:30.407,  59.763082359,  17.763503015,   50.2478,  5,  9,  3.2956,  1.9460,  6.0649,  1.4041,  1.6999,  3.5874,  0.00,   0.0
2019/03/14 10:39:31.407,  59.762792229,  17.763733229,  -45.2695,  5,  9,  3.2956,  1.9460,  6.0661,  1.4042,  1.7004,  3.5879,  0.00,   0.0
2019/03/14 10:39:32.407,  59.763002744,  17.763624798,   98.6116,  5,  9,  3.2956,  1.9460,  6.0672,  1.4043,  1.7008,  3.5883,  0.00,   0.0
2019/03/14 10:39:33.407,  59.763010563,  17.763795185,   93.6045,  5,  9,  3.2956,  1.9461,  6.0684,  1.4043,  1.7012,  3.5888,  0.00,   0.0
2019/03/14 10:39:34.407,  59.762888888,  17.763544324,   25.7472,  5,  9,  3.2956,  1.9461,  6.0696,  1.4044,  1.7016,  3.5893,  0.00,   0.0
2019/03/14 10:39:35.407,  59.762801832,  17.762974882,  -21.4295,  5,  8,  3.5431,  2.4493,  6.5139,  1.9767,  2.5316,  3.9948,  0.00,   0.0
2019/03/14 10:39:36.407,  59.762764978,  17.763825961,  -58.3053,  5,  8,  3.5428,  2.4491,  6.5146,  1.9763,  2.5314,  3.9948,  0.00,   0.0
2019/03/14 10:39:37.407,  59.762841022,  17.764164033,   65.3951,  5,  8,  3.5424,  2.4490,  6.5152,  1.9759,  2.5311,  3.9947,  0.00,   0.0
2019/03/14 10:39:38.407,  59.763365254,  17.763762874,   36.7796,  5,  8,  3.5421,  2.4488,  6.5159,  1.9756,  2.5309,  3.9947,  0.00,   0.0
2019/03/14 10:39:39.407,  59.763132940,  17.763431850,  -16.0958,  5,  8,  3.5418,  2.4486,  6.5165,  1.9752,  2.5307,  3.9947,  0.00,   0.0
2019/03/14 10:39:40.407,  59.762906624,  17.763871797,   15.4189,  5,  8,  3.5416,  2.4485,  6.5172,  1.9749,  2.5305,  3.9947,  0.00,   0.0
2019/03/14 10:39:41.407,  59.763233118,  17.764934025,   66.9827,  5,  8,  3.5412,  2.4483,  6.5178,  1.9745,  2.5302,  3.9946,  0.00,   0.0
2019/03/14 10:39:42.407,  59.763253956,  17.763701998,   83.4797,  5,  8,  3.5409,  2.4482,  6.5185,  1.9742,  2.5300,  3.9946,  0.00,   0.0
2019/03/14 10:39:43.407,  59.762990771,  17.763721800,   47.6111,  5,  9,  3.2955,  1.9464,  6.0802,  1.4050,  1.7054,  3.5934,  0.00,   0.0
2019/03/14 10:39:44.407,  59.763343367,  17.763941135,   56.3203,  5,  9,  3.2955,  1.9464,  6.0814,  1.4050,  1.7058,  3.5938,  0.00,   0.0
2019/03/14 10:39:45.407,  59.762410490,  17.763372422,  -35.7156,  5,  9,  3.2956,  1.9465,  6.0826,  1.4052,  1.7062,  3.5944,  0.00,   0.0
2019/03/14 10:39:46.407,  59.763090655,  17.763849951,   69.8812,  5,  9,  3.2955,  1.9465,  6.0837,  1.4052,  1.7066,  3.5948,  0.00,   0.0
2019/03/14 10:39:47.407,  59.763227964,  17.763775901,   68.0065,  5,  9,  3.2955,  1.9465,  6.0849,  1.4052,  1.7071,  3.5952,  0.00,   0.0
2019/03/14 10:39:48.407,  59.763046968,  17.763437267,   65.7632,  5,  9,  3.2955,  1.9466,  6.0861,  1.4053,  1.7075,  3.5957,  0.00,   0.0
2019/03/14 10:39:49.407,  59.763149898,  17.763904568,  -10.4110,  5,  9,  3.2955,  1.9466,  6.0873,  1.4054,  1.7079,  3.5961,  0.00,   0.0
2019/03/14 10:39:50.407,  59.763173386,  17.763713579,   95.2320,  5,  9,  3.2955,  1.9466,  6.0885,  1.4054,  1.7083,  3.5966,  0.00,   0.0
2019/03/14 10:39:51.407,  59.763595001,  17.764217424,  114.2211,  5,  9,  3.2954,  1.9466,  6.0896,  1.4055,  1.7087,  3.5970,  0.00,   0.0
2019/03/14 10:39:52.407,  59.763116527,  17.764044747,   21.2105,  5,  9,  3.2955,  1.9467,  6.0908,  1.4056,  1.7091,  3.5975,  0.00,   0.0
2019/03/14 10:39:53.407,  59.762694208,  17.763945352,   63.1937,  5,  9,  3.2955,  1.9467,  6.0920,  1.4057,  1.7096,  3.5980,  0.00,   0.0
2019/03/14 10:39:54.407,  59.763405666,  17.763580587,   37.9121,  5,  9,  3.2954,  1.9468,  6.0932,  1.4057,  1.7100,  3.5984,  0.00,   0.0
2019/03/14 10:39:55.407,  59.763192054,  17.764092867,   39.0801,  5,  9,  3.2955,  1.9468,  6.0944,  1.4058,  1.7104,  3.5989,  0.00,   0.0
2019/03/14 10:39:56.407,  59.762966523,  17.764227985,   43.6255,  5,  9,  3.2955,  1.9468,  6.0956,  1.4058,  1.7108,  3.5994,  0.00,   0.0
2019/03/14 10:39:57.407,  59.763245909,  17.763444196,  117.2275,  5,  9,  3.2954,  1.9469,  6.0967,  1.4059,  1.7113,  3.5998,  0.00,   0.0
2019/03/14 10:39:58.407,  59.763297459,  17.763726827,  161.9759,  5,  9,  3.2954,  1.9469,  6.0979,  1.4060,  1.7117,  3.6002,  0.00,   0.0
2019/03/14 10:39:59.407,  59.762684400,  17.763613614,  -12.2993,  5,  9,  3.2955,  1.9469,  6.0991,  1.4061,  1.7121,  3.6008,  0.00,   0.0
2019/03/14 10:40:00.407,  59.762620560,  17.763699813,  -43.8561,  5,  9,  3.2955,  1.9470,  6.1003,  1.4061,  1.7125,  3.6012,  0.00,   0.0
2019/03/14 10:40:01.407,  59.763137047,  17.764395476,  124.6858,  5,  9,  3.2954,  1.9470,  6.1015,  1.4062,  1.7129,  3.6016,  0.00,   0.0
2019/03/14 10:40:02.407,  59.763210527,  17.763888450,   74.2060,  5,  9,  3.2954,  1.9470,  6.1027,  1.4062,  1.7133,  3.6021,  0.00,   0.0
2019/03/14 10:40:03.407,  59.762929875,  17.763869981,  -39.7765,  5,  9,  3.2955,  1.9471,  6.1039,  1.4063,  1.7138,  3.6026,  0.00,   0.0
2019/03/14 10:40:04.407,  59.762775814,  17.763789194,   33.8921,  5,  9,  3.2955,  1.9471,  6.1050,  1.4064,  1.7142,  3.6031,  0.00,   0.0
2019/03/14 10:40:05.407,  59.763091425,  17.763998211,   -1.9117,  5,  9,  3.2954,  1.9471,  6.1062,  1.4064,  1.7146,  3.6035,  0.00,   0.0
2019/03/14 10:40:06.407,  59.763030186,  17.764345755,   80.5048,  5,  9,  3.2954,  1.9472,  6.1074,  1.4065,  1.7150,  3.6040,  0.00,   0.0
2019/03/14 10:40:07.407,  59.763142713,  17.764055109,   87.0039,  5,  9,  3.2954,  1.9472,  6.1086,  1.4066,  1.7154,  3.6044,  0.00,   0.0
2019/03/14 10:40:08.407,  59.763098874,  17.763939406,   75.4279,  5,  9,  3.2954,  1.9472,  6.1098,  1.4066,  1.7159,  3.6049,  0.00,   0.0
2019/03/14 10:40:09.407,  59.762771458,  17.763521084,   79.6796,  5,  9,  3.2955,  1.9473,  6.1110,  1.4067,  1.7163,  3.6054,  0.00,   0.0
2019/03/14 10:40:10.407,  59.763188960,  17.763672822,  -15.3775,  5,  9,  3.2954,  1.9473,  6.1122,  1.4068,  1.7167,  3.6058,  0.00,   0.0
2019/03/14 10:40:11.407,  59.762771889,  17.763218980,    7.7065,  5,  9,  3.2954,  1.9473,  6.1133,  1.4068,  1.7171,  3.6063,  0.00,   0.0
2019/03/14 10:40:12.407,  59.763235324,  17.764081339,   63.4541,  5,  9,  3.2954,  1.9474,  6.1145,  1.4069,  1.7175,  3.6067,  0.00,   0.0
2019/03/14 10:40:13.407,  59.763395074,  17.764190746,  143.6208,  5,  9,  3.2954,  1.9474,  6.1157,  1.4069,  1.7179,  3.6071,  0.00,   0.0
2019/03/14 10:40:14.407,  59.762578186,  17.763857218,   37.9392,  5,  9,  3.2954,  1.9475,  6.1169,  1.4070,  1.7184,  3.6077,  0.00,   0.0
2019/03/14 10:40:15.407,  59.763333697,  17.763844875,   58.2762,  5,  9,  3.2954,  1.9475,  6.1181,  1.4071,  1.7188,  3.6081,  0.00,   0.0
2019/03/14 10:40:16.407,  59.763246902,  17.764107435,   61.9810,  5,  9,  3.2954,  1.9475,  6.1193,  1.4071,  1.7192,  3.6085,  0.00,   0.0
2019/03/14 10:40:17.407,  59.762900171,  17.763001659,  -76.0551,  5,  9,  3.2954,  1.9475,  6.1205,  1.4072,  1.7197,  3.6090,  0.00,   0.0
2019/03/14 10:40:18.407,  59.763294801,  17.763983154,   38.8571,  5,  9,  3.2954,  1.9476,  6.1217,  1.4073,  1.7200,  3.6095,  0.00,   0.0
2019/03/14 10:40:19.407,  59.763373074,  17.763894716,   65.5184,  5,  9,  3.2953,  1.9476,  6.1228,  1.4073,  1.7205,  3.6099,  0.00,   0.0
2019/03/14 10:40:20.407,  59.763336745,  17.763885157,   90.1883,  5,  9,  3.2953,  1.9476,  6.1240,  1.4074,  1.7209,  3.6104,  0.00,   0.0
2019/03/14 10:40:21.407,  59.762941970,  17.763680342,   26.0291,  5,  9,  3.2954,  1.9477,  6.1252,  1.4075,  1.7213,  3.6109,  0.00,   0.0
2019/03/14 10:40:22.407,  59.763308926,  17.763785306,   39.5607,  5,  9,  3.2953,  1.9477,  6.1264,  1.4075,  1.7217,  3.6113,  0.00,   0.0
2019/03/14 10:40:23.407,  59.763498908,  17.764256786,   34.2646,  5,  9,  3.2953,  1.9477,  6.1276,  1.4076,  1.7221,  3.6117,  0.00,   0.0
2019/03/14 10:40:24.407,  59.763085742,  17.763801719,   58.2572,  5,  9,  3.2954,  1.9478,  6.1288,  1.4077,  1.7226,  3.6122,  0.00,   0.0
2019/03/14 10:40:25.407,  59.764057802,  17.764074494,  124.1090,  5,  9,  3.2952,  1.9478,  6.1300,  1.4077,  1.7230,  3.6126,  0.00,   0.0
2019/03/14 10:40:26.407,  59.763575182,  17.763973859,   66.2974,  5,  9,  3.2953,  1.9478,  6.1312,  1.4078,  1.7234,  3.6131,  0.00,   0.0
2019/03/14 10:40:27.407,  59.763318281,  17.763596762,   85.9547,  5,  9,  3.2953,  1.9479,  6.1324,  1.4079,  1.7238,  3.6136,  0.00,   0.0
2019/03/14 10:40:28.407,  59.763233273,  17.763432333,   22.3653,  5,  9,  3.2953,  1.9479,  6.1336,  1.4079,  1.7243,  3.6141,  0.00,   0.0
2019/03/14 10:40:29.407,  59.763218430,  17.763471344,   52.7553,  5,  9,  3.2953,  1.9480,  6.1347,  1.4080,  1.7247,  3.6145,  0.00,   0.0
2019/03/14 10:40:30.407,  59.763126437,  17.763656989,  -21.5793,  5,  9,  3.2953,  1.9480,  6.1360,  1.4081,  1.7251,  3.6150,  0.00,   0.0
2019/03/14 10:40:31.407,  59.763490407,  17.763382860,   91.3162,  5,  9,  3.2953,  1.9480,  6.1371,  1.4081,  1.7255,  3.6154,  0.00,   0.0
2019/03/14 10:40:32.407,  59.763118502,  17.763347303,  -17.4811,  5,  8,  3.5263,  2.4404,  6.5516,  1.9566,  2.5190,  3.9937,  0.00,   0.0
2019/03/14 10:40:33.407,  59.763248221,  17.763777838,   43.8341,  5,  8,  3.5260,  2.4403,  6.5523,  1.9562,  2.5187,  3.9937,  0.00,   0.0
2019/03/14 10:40:34.407,  59.763346561,  17.763834228,  110.7677,  5,  8,  3.5257,  2.4401,  6.5530,  1.9558,  2.5185,  3.9936,  0.00,   0.0
2019/03/14 10:40:35.407,  59.763009430,  17.763048369,   -0.7845,  5,  8,  3.5255,  2.4399,  6.5536,  1.9555,  2.5183,  3.9937,  0.00,   0.0
2019/03/14 10:40:36.407,  59.763199956,  17.763465683,   33.3303,  5,  8,  3.5251,  2.4398,  6.5543,  1.9552,  2.5181,  3.9936,  0.00,   0.0
2019/03/14 10:40:37.407,  59.763010593,  17.764516307,   24.2123,  5,  8,  3.5248,  2.4396,  6.5550,  1.9548,  2.5178,  3.9936,  0.00,   0.0
2019/03/14 10:40:38.407,  59.762601202,  17.763907858,  -81.3468,  5,  8,  3.5246,  2.4395,  6.5557,  1.9545,  2.5176,  3.9937,  0.00,   0.0
2019/03/14 10:40:39.407,  59.762858746,  17.764439909,  134.0498,  5,  8,  3.5243,  2.4393,  6.5563,  1.9541,  2.5174,  3.9936,  0.00,   0.0
2019/03/14 10:40:40.407,  59.762689055,  17.764975605,  102.3418,  5,  8,  3.5240,  2.4392,  6.5570,  1.9537,  2.5171,  3.9936,  0.00,   0.0
2019/03/14 10:40:41.407,  59.763404183,  17.765050292,  102.9451,  5,  8,  3.5236,  2.4390,  6.5577,  1.9533,  2.5169,  3.9935,  0.00,   0.0
2019/03/14 10:40:42.407,  59.762802761,  17.763777401,   98.1756,  5,  8,  3.5234,  2.4389,  6.5583,  1.9530,  2.5167,  3.9936,  0.00,   0.0
2019/03/14 10:40:43.407,  59.762859951,  17.764276114,   93.6995,  5,  8,  3.5231,  2.4387,  6.5590,  1.9527,  2.5165,  3.9936,  0.00,   0.0
2019/03/14 10:40:44.407,  59.762775090,  17.764553825,  131.7382,  5,  8,  3.5228,  2.4386,  6.5597,  1.9523,  2.5162,  3.9935,  0.00,   0.0
2019/03/14 10:40:45.407,  59.762398317,  17.763436911,   61.8661,  5,  8,  3.5226,  2.4384,  6.5604,  1.9520,  2.5160,  3.9936,  0.00,   0.0
2019/03/14 10:40:46.407,  59.763021896,  17.764336870,   51.8374,  5,  8,  3.5222,  2.4382,  6.5610,  1.9516,  2.5158,  3.9935,  0.00,   0.0
2019/03/14 10:40:47.407,  59.763186397,  17.764184975,  184.7649,  5,  8,  3.5219,  2.4381,  6.5617,  1.9512,  2.5155,  3.9935,  0.00,   0.0
2019/03/14 10:40:48.407,  59.763066537,  17.764120870,   66.9794,  5,  8,  3.5217,  2.4379,  6.5624,  1.9509,  2.5153,  3.9935,  0.00,   0.0
2019/03/14 10:40:49.407,  59.763041931,  17.763871936,   72.7394,  5,  8,  3.5214,  2.4378,  6.5630,  1.9506,  2.5151,  3.9935,  0.00,   0.0
2019/03/14 10:40:50.407,  59.763041112,  17.763502137,  118.7991,  5,  8,  3.5211,  2.4376,  6.5637,  1.9502,  2.5149,  3.9935,  0.00,   0.0
2019/03/14 10:40:51.407,  59.762962335,  17.763271190,   62.4048,  5,  8,  3.5208,  2.4375,  6.5644,  1.9499,  2.5147,  3.9935,  0.00,   0.0
2019/03/14 10:40:52.407,  59.763312173,  17.763963604,   91.7819,  5,  8,  3.5205,  2.4373,  6.5651,  1.9495,  2.5144,  3.9934,  0.00,   0.0
2019/03/14 10:40:53.407,  59.763204322,  17.763832358,   67.2180,  5,  8,  3.5202,  2.4371,  6.5657,  1.9491,  2.5142,  3.9934,  0.00,   0.0
2019/03/14 10:40:54.407,  59.763205942,  17.763986851,  136.4247,  5,  8,  3.5199,  2.4370,  6.5664,  1.9488,  2.5140,  3.9934,  0.00,   0.0
2019/03/14 10:40:55.407,  59.763409541,  17.764806071,  162.1387,  5,  8,  3.5196,  2.4368,  6.5671,  1.9484,  2.5137,  3.9933,  0.00,   0.0
2019/03/14 10:40:56.407,  59.762764789,  17.763641229,  -29.1657,  5,  8,  3.5194,  2.4367,  6.5678,  1.9481,  2.5135,  3.9934,  0.00,   0.0
2019/03/14 10:40:57.407,  59.763320549,  17.763856806,  126.0597,  5,  8,  3.5190,  2.4365,  6.5684,  1.9477,  2.5133,  3.9933,  0.00,   0.0
2019/03/14 10:40:58.407,  59.763248168,  17.764081745,  128.8706,  5,  8,  3.5188,  2.4364,  6.5691,  1.9474,  2.5131,  3.9933,  0.00,   0.0
2019/03/14 10:40:59.407,  59.762894500,  17.763513272,   50.4337,  5,  8,  3.5185,  2.4362,  6.5698,  1.9470,  2.5129,  3.9934,  0.00,   0.0
2019/03/14 10:41:00.407,  59.762863064,  17.763713594,   25.9186,  5,  8,  3.5182,  2.4361,  6.5705,  1.9467,  2.5126,  3.9934,  0.00,   0.0
2019/03/14 10:41:01.407,  59.763062591,  17.763611846,  -33.6064,  5,  8,  3.5179,  2.4359,  6.5712,  1.9463,  2.5124,  3.9933,  0.00,   0.0
2019/03/14 10:41:02.407,  59.762983108,  17.763884101,    5.7092,  5,  8,  3.5177,  2.4358,  6.5718,  1.9460,  2.5122,  3.9933,  0.00,   0.0
2019/03/14 10:41:03.407,  59.762763466,  17.762844851,   22.5746,  5,  8,  3.5174,  2.4356,  6.5725,  1.9456,  2.5120,  3.9933,  0.00,   0.0
2019/03/14 10:41:04.407,  59.763477764,  17.764529760,  129.0291,  5,  8,  3.5170,  2.4354,  6.5732,  1.9452,  2.5117,  3.9932,  0.00,   0.0
2019/03/14 10:41:05.407,  59.763349364,  17.763836465,  113.5562,  5,  8,  3.5167,  2.4353,  6.5738,  1.9449,  2.5115,  3.9932,  0.00,   0.0
2019/03/14 10:41:06.407,  59.763250114,  17.763614164,   84.7734,  5,  9,  3.2951,  1.9492,  6.1790,  1.4104,  1.7401,  3.6316,  0.00,   0.0
2019/03/14 10:41:07.407,  59.762716450,  17.763648619,    4.2930,  5,  9,  3.2952,  1.9493,  6.1802,  1.4105,  1.7406,  3.6321,  0.00,   0.0
2019/03/14 10:41:08.407,  59.762869597,  17.763684345,   84.4537,  5,  9,  3.2952,  1.9493,  6.1814,  1.4105,  1.7410,  3.6325,  0.00,   0.0
2019/03/14 10:41:09.407,  59.762883051,  17.763581041,   44.9168,  5,  9,  3.2952,  1.9494,  6.1826,  1.4106,  1.7414,  3.6330,  0.00,   0.0
2019/03/14 10:41:10.407,  59.762961269,  17.763075572,  -27.3891,  5,  9,  3.2952,  1.9494,  6.1838,  1.4106,  1.7418,  3.6334,  0.00,   0.0
2019/03/14 10:41:11.407,  59.762965225,  17.763697366,   68.4614,  5,  9,  3.2952,  1.9494,  6.1850,  1.4107,  1.7422,  3.6339,  0.00,   0.0
2019/03/14 10:41:12.407,  59.763341252,  17.764133073,  196.0480,  5,  9,  3.2951,  1.9494,  6.1861,  1.4107,  1.7426,  3.6343,  0.00,   0.0
2019/03/14 10:41:13.407,  59.762868111,  17.764115559,   10.7543,  5,  9,  3.2952,  1.9495,  6.1874,  1.4108,  1.7430,  3.6348,  0.00,   0.0
2019/03/14 10:41:14.407,  59.763023834,  17.764151505,   91.5405,  5,  9,  3.2951,  1.9495,  6.1886,  1.4109,  1.7435,  3.6353,  0.00,   0.0
2019/03/14 10:41:15.407,  59.762888447,  17.764511099,   32.2387,  5,  9,  3.2951,  1.9496,  6.1898,  1.4109,  1.7439,  3.6357,  0.00,   0.0
2019/03/14 10:41:16.407,  59.762980495,  17.764224952,   62.0472,  5,  9,  3.2951,  1.9496,  6.1910,  1.4110,  1.7443,  3.6362,  0.00,   0.0
2019/03/14 10:41:17.407,  59.762320673,  17.763904171,    1.1267,  5,  9,  3.2952,  1.9497,  6.1922,  1.4111,  1.7447,  3.6367,  0.00,   0.0
2019/03/14 10:41:18.407,  59.763097958,  17.763914691,   68.6795,  5,  9,  3.2951,  1.9497,  6.1934,  1.4111,  1.7451,  3.6371,  0.00,   0.0
2019/03/14 10:41:19.407,  59.762719786,  17.763484528,    9.2555,  5,  9,  3.2951,  1.9497,  6.1946,  1.4112,  1.7456,  3.6376,  0.00,   0.0
2019/03/14 10:41:20.407,  59.762593661,  17.763855549,    1.1423,  5,  9,  3.2952,  1.9498,  6.1958,  1.4113,  1.7460,  3.6381,  0.00,   0.0
2019/03/14 10:41:21.407,  59.762948112,  17.763205850,  -76.3171,  5,  9,  3.2951,  1.9498,  6.1970,  1.4113,  1.7464,  3.6385,  0.00,   0.0
2019/03/14 10:41:22.407,  59.763244041,  17.764213640,  170.6542,  5,  9,  3.2951,  1.9498,  6.1982,  1.4114,  1.7468,  3.6389,  0.00,   0.0
2019/03/14 10:41:23.407,  59.763060909,  17.764365643,   63.8827,  5,  9,  3.2951,  1.9498,  6.1994,  1.4114,  1.7472,  3.6394,  0.00,   0.0
2019/03/14 10:41:24.407,  59.763214806,  17.762936379,   87.4156,  5,  9,  3.2951,  1.9499,  6.2006,  1.4115,  1.7477,  3.6399,  0.00,   0.0
2019/03/14 10:41:25.407,  59.763159751,  17.763665138,  118.3582,  5,  9,  3.2951,  1.9499,  6.2018,  1.4116,  1.7480,  3.6403,  0.00,   0.0
2019/03/14 10:41:26.407,  59.763017691,  17.763320474,  124.4374,  5,  9,  3.2951,  1.9499,  6.2030,  1.4116,  1.7485,  3.6408,  0.00,   0.0
2019/03/14 10:41:27.407,  59.762871237,  17.763750171,   19.1678,  5,  9,  3.2951,  1.9500,  6.2042,  1.4117,  1.7489,  3.6413,  0.00,   0.0
2019/03/14 10:41:28.407,  59.762956302,  17.763415790,   11.9499,  5,  9,  3.2951,  1.9500,  6.2054,  1.4118,  1.7493,  3.6417,  0.00,   0.0
2019/03/14 10:41:29.407,  59.763102240,  17.764241720,  -27.5117,  5,  9,  3.2951,  1.9501,  6.2066,  1.4118,  1.7497,  3.6422,  0.00,   0.0
2019/03/14 10:41:31.407,  59.762788544,  17.764023463,   11.0180,  5,  9,  3.2951,  1.9501,  6.2090,  1.4120,  1.7506,  3.6431,  0.00,   0.0
2019/03/14 10:41:32.407,  59.763206219,  17.763777769,  139.0529,  5,  9,  3.2950,  1.9502,  6.2102,  1.4120,  1.7510,  3.6435,  0.00,   0.0
2019/03/14 10:41:33.407,  59.763493623,  17.763998300,   44.7314,  5,  9,  3.2950,  1.9502,  6.2114,  1.4121,  1.7514,  3.6440,  0.00,   0.0
